{
"type": "FeatureCollection",
"features": [
{ "type": "Feature", "id": 1, "properties": { "Comune": "Campotosto", "Popolazione residente": 542, "0-14 anni": 38, "15-64 anni": 296, "Oltre 65 anni": 208 }, "geometry": { "type": "Point", "coordinates": [ 13.361464382945201, 42.549234025482903 ] } },
{ "type": "Feature", "id": 2, "properties": { "Comune": "Capitignano", "Popolazione residente": 665, "0-14 anni": 65, "15-64 anni": 406, "Oltre 65 anni": 194 }, "geometry": { "type": "Point", "coordinates": [ 13.305054334834599, 42.523149703993099 ] } },
{ "type": "Feature", "id": 3, "properties": { "Comune": "Tossicia", "Popolazione residente": 1406, "0-14 anni": 141, "15-64 anni": 892, "Oltre 65 anni": 373 }, "geometry": { "type": "Point", "coordinates": [ 13.6358433673586, 42.5492388349086 ] } },
{ "type": "Feature", "id": 4, "properties": { "Comune": "Valle Castellana", "Popolazione residente": 977, "0-14 anni": 75, "15-64 anni": 588, "Oltre 65 anni": 314 }, "geometry": { "type": "Point", "coordinates": [ 13.4794591294805, 42.709149146003298 ] } },
{ "type": "Feature", "id": 5, "properties": { "Comune": "Teramo", "Popolazione residente": 54892, "0-14 anni": 6999, "15-64 anni": 35232, "Oltre 65 anni": 12661 }, "geometry": { "type": "Point", "coordinates": [ 13.7106621038768, 42.658269136898703 ] } },
{ "type": "Feature", "id": 6, "properties": { "Comune": "Torricella Sicura", "Popolazione residente": 2641, "0-14 anni": 305, "15-64 anni": 1744, "Oltre 65 anni": 592 }, "geometry": { "type": "Point", "coordinates": [ 13.602399330559001, 42.666439749239203 ] } },
{ "type": "Feature", "id": 7, "properties": { "Comune": "Montereale", "Popolazione residente": 2581, "0-14 anni": 271, "15-64 anni": 1533, "Oltre 65 anni": 777 }, "geometry": { "type": "Point", "coordinates": [ 13.228030541846801, 42.530145527937101 ] } },
{ "type": "Feature", "id": 8, "properties": { "Comune": "Corridonia", "Popolazione residente": 15430, "0-14 anni": 2287, "15-64 anni": 9886, "Oltre 65 anni": 3257 }, "geometry": { "type": "Point", "coordinates": [ 13.5075130448585, 43.249686478605803 ] } },
{ "type": "Feature", "id": 9, "properties": { "Comune": "Acquacanina", "Popolazione residente": 121, "0-14 anni": 13, "15-64 anni": 73, "Oltre 65 anni": 35 }, "geometry": { "type": "Point", "coordinates": [ 13.184488282185701, 43.0099802593476 ] } },
{ "type": "Feature", "id": 10, "properties": { "Comune": "Esanatoglia", "Popolazione residente": 2034, "0-14 anni": 253, "15-64 anni": 1224, "Oltre 65 anni": 557 }, "geometry": { "type": "Point", "coordinates": [ 12.932821624138899, 43.247527646368901 ] } },
{ "type": "Feature", "id": 11, "properties": { "Comune": "Cerreto d'Esi", "Popolazione residente": 3817, "0-14 anni": 573, "15-64 anni": 2460, "Oltre 65 anni": 784 }, "geometry": { "type": "Point", "coordinates": [ 12.993961856861601, 43.319144220932699 ] } },
{ "type": "Feature", "id": 12, "properties": { "Comune": "Fiastra", "Popolazione residente": 559, "0-14 anni": 51, "15-64 anni": 303, "Oltre 65 anni": 205 }, "geometry": { "type": "Point", "coordinates": [ 13.1630372335187, 43.052932521050799 ] } },
{ "type": "Feature", "id": 13, "properties": { "Comune": "Apiro", "Popolazione residente": 2280, "0-14 anni": 267, "15-64 anni": 1412, "Oltre 65 anni": 601 }, "geometry": { "type": "Point", "coordinates": [ 13.1080459248926, 43.381670648042501 ] } },
{ "type": "Feature", "id": 14, "properties": { "Comune": "Belforte del Chienti", "Popolazione residente": 1886, "0-14 anni": 285, "15-64 anni": 1192, "Oltre 65 anni": 409 }, "geometry": { "type": "Point", "coordinates": [ 13.2441013607647, 43.164140464617503 ] } },
{ "type": "Feature", "id": 15, "properties": { "Comune": "Massa Fermana", "Popolazione residente": 963, "0-14 anni": 124, "15-64 anni": 586, "Oltre 65 anni": 253 }, "geometry": { "type": "Point", "coordinates": [ 13.4816207506588, 43.153702816151302 ] } },
{ "type": "Feature", "id": 16, "properties": { "Comune": "Monsampietro Morico", "Popolazione residente": 659, "0-14 anni": 74, "15-64 anni": 402, "Oltre 65 anni": 183 }, "geometry": { "type": "Point", "coordinates": [ 13.557833444845601, 43.0571797221819 ] } },
{ "type": "Feature", "id": 17, "properties": { "Comune": "Montappone", "Popolazione residente": 1682, "0-14 anni": 182, "15-64 anni": 1054, "Oltre 65 anni": 446 }, "geometry": { "type": "Point", "coordinates": [ 13.4609844272772, 43.136992524358497 ] } },
{ "type": "Feature", "id": 18, "properties": { "Comune": "Ortezzano", "Popolazione residente": 774, "0-14 anni": 83, "15-64 anni": 483, "Oltre 65 anni": 208 }, "geometry": { "type": "Point", "coordinates": [ 13.6088807792285, 43.030163054322898 ] } },
{ "type": "Feature", "id": 19, "properties": { "Comune": "Amandola", "Popolazione residente": 3629, "0-14 anni": 359, "15-64 anni": 2313, "Oltre 65 anni": 957 }, "geometry": { "type": "Point", "coordinates": [ 13.3499658685889, 42.9892960241487 ] } },
{ "type": "Feature", "id": 20, "properties": { "Comune": "Fiordimonte", "Popolazione residente": 202, "0-14 anni": 23, "15-64 anni": 112, "Oltre 65 anni": 67 }, "geometry": { "type": "Point", "coordinates": [ 13.0978167471805, 43.022970285785398 ] } },
{ "type": "Feature", "id": 21, "properties": { "Comune": "Bolognola", "Popolazione residente": 142, "0-14 anni": 14, "15-64 anni": 90, "Oltre 65 anni": 38 }, "geometry": { "type": "Point", "coordinates": [ 13.217698563911901, 42.985151141215397 ] } },
{ "type": "Feature", "id": 22, "properties": { "Comune": "Caldarola", "Popolazione residente": 1823, "0-14 anni": 239, "15-64 anni": 1153, "Oltre 65 anni": 431 }, "geometry": { "type": "Point", "coordinates": [ 13.2017055870778, 43.126271317934403 ] } },
{ "type": "Feature", "id": 23, "properties": { "Comune": "Fiuminata", "Popolazione residente": 1402, "0-14 anni": 135, "15-64 anni": 809, "Oltre 65 anni": 458 }, "geometry": { "type": "Point", "coordinates": [ 12.8972800392674, 43.1662355725935 ] } },
{ "type": "Feature", "id": 24, "properties": { "Comune": "Gagliole", "Popolazione residente": 620, "0-14 anni": 72, "15-64 anni": 400, "Oltre 65 anni": 148 }, "geometry": { "type": "Point", "coordinates": [ 13.0761245304911, 43.242063192355801 ] } },
{ "type": "Feature", "id": 25, "properties": { "Comune": "Camerino", "Popolazione residente": 6974, "0-14 anni": 755, "15-64 anni": 4338, "Oltre 65 anni": 1881 }, "geometry": { "type": "Point", "coordinates": [ 13.0745620022126, 43.135574600926098 ] } },
{ "type": "Feature", "id": 26, "properties": { "Comune": "Camporotondo di Fiastrone", "Popolazione residente": 563, "0-14 anni": 87, "15-64 anni": 352, "Oltre 65 anni": 124 }, "geometry": { "type": "Point", "coordinates": [ 13.2657671877481, 43.135568519523702 ] } },
{ "type": "Feature", "id": 27, "properties": { "Comune": "Macerata", "Popolazione residente": 42473, "0-14 anni": 4837, "15-64 anni": 26354, "Oltre 65 anni": 11282 }, "geometry": { "type": "Point", "coordinates": [ 13.4518548958166, 43.303567339018002 ] } },
{ "type": "Feature", "id": 28, "properties": { "Comune": "Gualdo", "Popolazione residente": 815, "0-14 anni": 61, "15-64 anni": 468, "Oltre 65 anni": 286 }, "geometry": { "type": "Point", "coordinates": [ 13.355733784561099, 43.066749120346699 ] } },
{ "type": "Feature", "id": 29, "properties": { "Comune": "Castelraimondo", "Popolazione residente": 4587, "0-14 anni": 537, "15-64 anni": 2951, "Oltre 65 anni": 1099 }, "geometry": { "type": "Point", "coordinates": [ 13.092061939078, 43.201753375003896 ] } },
{ "type": "Feature", "id": 30, "properties": { "Comune": "Loro Piceno", "Popolazione residente": 2401, "0-14 anni": 274, "15-64 anni": 1431, "Oltre 65 anni": 696 }, "geometry": { "type": "Point", "coordinates": [ 13.418892125394599, 43.165024344731698 ] } },
{ "type": "Feature", "id": 31, "properties": { "Comune": "Castelsantangelo sul Nera", "Popolazione residente": 281, "0-14 anni": 10, "15-64 anni": 169, "Oltre 65 anni": 102 }, "geometry": { "type": "Point", "coordinates": [ 13.181757735219399, 42.878397197012397 ] } },
{ "type": "Feature", "id": 32, "properties": { "Comune": "Fabriano", "Popolazione residente": 31480, "0-14 anni": 4139, "15-64 anni": 19643, "Oltre 65 anni": 7698 }, "geometry": { "type": "Point", "coordinates": [ 12.906555932186199, 43.331713783304501 ] } },
{ "type": "Feature", "id": 33, "properties": { "Comune": "Cessapalombo", "Popolazione residente": 512, "0-14 anni": 55, "15-64 anni": 308, "Oltre 65 anni": 149 }, "geometry": { "type": "Point", "coordinates": [ 13.235053344781599, 43.0824878686281 ] } },
{ "type": "Feature", "id": 34, "properties": { "Comune": "Matelica", "Popolazione residente": 9981, "0-14 anni": 1232, "15-64 anni": 6160, "Oltre 65 anni": 2589 }, "geometry": { "type": "Point", "coordinates": [ 13.024440200611201, 43.271717982452301 ] } },
{ "type": "Feature", "id": 35, "properties": { "Comune": "Mogliano", "Popolazione residente": 4696, "0-14 anni": 596, "15-64 anni": 2830, "Oltre 65 anni": 1270 }, "geometry": { "type": "Point", "coordinates": [ 13.4836233017007, 43.189218068012998 ] } },
{ "type": "Feature", "id": 36, "properties": { "Comune": "Cingoli", "Popolazione residente": 10352, "0-14 anni": 1330, "15-64 anni": 6513, "Oltre 65 anni": 2509 }, "geometry": { "type": "Point", "coordinates": [ 13.2310535855529, 43.383401533355901 ] } },
{ "type": "Feature", "id": 37, "properties": { "Comune": "Monte Cavallo", "Popolazione residente": 145, "0-14 anni": 20, "15-64 anni": 70, "Oltre 65 anni": 55 }, "geometry": { "type": "Point", "coordinates": [ 12.9880148411431, 42.991468656444702 ] } },
{ "type": "Feature", "id": 38, "properties": { "Comune": "Colmurano", "Popolazione residente": 1263, "0-14 anni": 172, "15-64 anni": 782, "Oltre 65 anni": 309 }, "geometry": { "type": "Point", "coordinates": [ 13.3592577670855, 43.1681846336975 ] } },
{ "type": "Feature", "id": 39, "properties": { "Comune": "Rocca Santa Maria", "Popolazione residente": 537, "0-14 anni": 44, "15-64 anni": 324, "Oltre 65 anni": 169 }, "geometry": { "type": "Point", "coordinates": [ 13.4762924740562, 42.665037230329297 ] } },
{ "type": "Feature", "id": 40, "properties": { "Comune": "Campli", "Popolazione residente": 7209, "0-14 anni": 862, "15-64 anni": 4623, "Oltre 65 anni": 1724 }, "geometry": { "type": "Point", "coordinates": [ 13.697254252478, 42.734427835926901 ] } },
{ "type": "Feature", "id": 41, "properties": { "Comune": "Castelli", "Popolazione residente": 1159, "0-14 anni": 94, "15-64 anni": 745, "Oltre 65 anni": 320 }, "geometry": { "type": "Point", "coordinates": [ 13.7254836296379, 42.485277668498703 ] } },
{ "type": "Feature", "id": 42, "properties": { "Comune": "Civitella del Tronto", "Popolazione residente": 5116, "0-14 anni": 582, "15-64 anni": 3300, "Oltre 65 anni": 1234 }, "geometry": { "type": "Point", "coordinates": [ 13.664564835621199, 42.7665255981874 ] } },
{ "type": "Feature", "id": 43, "properties": { "Comune": "Cortino", "Popolazione residente": 656, "0-14 anni": 63, "15-64 anni": 367, "Oltre 65 anni": 226 }, "geometry": { "type": "Point", "coordinates": [ 13.498082252378801, 42.628872692858003 ] } },
{ "type": "Feature", "id": 44, "properties": { "Comune": "Crognaleto", "Popolazione residente": 1297, "0-14 anni": 111, "15-64 anni": 806, "Oltre 65 anni": 380 }, "geometry": { "type": "Point", "coordinates": [ 13.472423608467899, 42.567003227178397 ] } },
{ "type": "Feature", "id": 45, "properties": { "Comune": "Montorio al Vomano", "Popolazione residente": 8218, "0-14 anni": 1133, "15-64 anni": 5198, "Oltre 65 anni": 1887 }, "geometry": { "type": "Point", "coordinates": [ 13.6287348285631, 42.585420924812198 ] } },
{ "type": "Feature", "id": 46, "properties": { "Comune": "Belmonte Piceno", "Popolazione residente": 646, "0-14 anni": 66, "15-64 anni": 392, "Oltre 65 anni": 188 }, "geometry": { "type": "Point", "coordinates": [ 13.5441139021985, 43.0891750209422 ] } },
{ "type": "Feature", "id": 47, "properties": { "Comune": "Falerone", "Popolazione residente": 3337, "0-14 anni": 405, "15-64 anni": 2051, "Oltre 65 anni": 881 }, "geometry": { "type": "Point", "coordinates": [ 13.466084792998, 43.0988218189948 ] } },
{ "type": "Feature", "id": 48, "properties": { "Comune": "Montefortino", "Popolazione residente": 1178, "0-14 anni": 122, "15-64 anni": 739, "Oltre 65 anni": 317 }, "geometry": { "type": "Point", "coordinates": [ 13.3137902180284, 42.941599709910101 ] } },
{ "type": "Feature", "id": 49, "properties": { "Comune": "Santa Vittoria in Matenano", "Popolazione residente": 1330, "0-14 anni": 122, "15-64 anni": 852, "Oltre 65 anni": 356 }, "geometry": { "type": "Point", "coordinates": [ 13.494951096237999, 43.019027451311104 ] } },
{ "type": "Feature", "id": 50, "properties": { "Comune": "Servigliano", "Popolazione residente": 2336, "0-14 anni": 292, "15-64 anni": 1419, "Oltre 65 anni": 625 }, "geometry": { "type": "Point", "coordinates": [ 13.493273979816999, 43.0640265049352 ] } },
{ "type": "Feature", "id": 51, "properties": { "Comune": "Smerillo", "Popolazione residente": 365, "0-14 anni": 29, "15-64 anni": 226, "Oltre 65 anni": 110 }, "geometry": { "type": "Point", "coordinates": [ 13.4307527091403, 43.003236904455299 ] } },
{ "type": "Feature", "id": 52, "properties": { "Comune": "Arquata del Tronto", "Popolazione residente": 1178, "0-14 anni": 96, "15-64 anni": 694, "Oltre 65 anni": 388 }, "geometry": { "type": "Point", "coordinates": [ 13.283455573466, 42.762517571711001 ] } },
{ "type": "Feature", "id": 53, "properties": { "Comune": "Sarnano", "Popolazione residente": 3264, "0-14 anni": 365, "15-64 anni": 1966, "Oltre 65 anni": 933 }, "geometry": { "type": "Point", "coordinates": [ 13.2831998090181, 43.022469396458298 ] } },
{ "type": "Feature", "id": 54, "properties": { "Comune": "Muccia", "Popolazione residente": 915, "0-14 anni": 105, "15-64 anni": 584, "Oltre 65 anni": 226 }, "geometry": { "type": "Point", "coordinates": [ 13.051474297857601, 43.077193421561503 ] } },
{ "type": "Feature", "id": 55, "properties": { "Comune": "Sefro", "Popolazione residente": 422, "0-14 anni": 44, "15-64 anni": 231, "Oltre 65 anni": 147 }, "geometry": { "type": "Point", "coordinates": [ 12.952816000592801, 43.132727559823003 ] } },
{ "type": "Feature", "id": 56, "properties": { "Comune": "Penna San Giovanni", "Popolazione residente": 1108, "0-14 anni": 83, "15-64 anni": 673, "Oltre 65 anni": 352 }, "geometry": { "type": "Point", "coordinates": [ 13.422364341359, 43.059780152917298 ] } },
{ "type": "Feature", "id": 57, "properties": { "Comune": "Serrapetrona", "Popolazione residente": 966, "0-14 anni": 115, "15-64 anni": 617, "Oltre 65 anni": 234 }, "geometry": { "type": "Point", "coordinates": [ 13.1799870025392, 43.174124028917497 ] } },
{ "type": "Feature", "id": 58, "properties": { "Comune": "Ascoli Piceno", "Popolazione residente": 49407, "0-14 anni": 5393, "15-64 anni": 30703, "Oltre 65 anni": 13311 }, "geometry": { "type": "Point", "coordinates": [ 13.569721053975501, 42.851594643824399 ] } },
{ "type": "Feature", "id": 59, "properties": { "Comune": "Castel di Lama", "Popolazione residente": 8634, "0-14 anni": 1304, "15-64 anni": 5656, "Oltre 65 anni": 1674 }, "geometry": { "type": "Point", "coordinates": [ 13.7022642154141, 42.8763933896686 ] } },
{ "type": "Feature", "id": 60, "properties": { "Comune": "Petriolo", "Popolazione residente": 1998, "0-14 anni": 271, "15-64 anni": 1206, "Oltre 65 anni": 521 }, "geometry": { "type": "Point", "coordinates": [ 13.459444550726699, 43.219835141577498 ] } },
{ "type": "Feature", "id": 61, "properties": { "Comune": "Pieve Torina", "Popolazione residente": 1458, "0-14 anni": 184, "15-64 anni": 869, "Oltre 65 anni": 405 }, "geometry": { "type": "Point", "coordinates": [ 12.976158637030199, 43.0327056952517 ] } },
{ "type": "Feature", "id": 62, "properties": { "Comune": "Castignano", "Popolazione residente": 2796, "0-14 anni": 321, "15-64 anni": 1770, "Oltre 65 anni": 705 }, "geometry": { "type": "Point", "coordinates": [ 13.6253591719274, 42.936480265317797 ] } },
{ "type": "Feature", "id": 63, "properties": { "Comune": "Pievebovigliana", "Popolazione residente": 866, "0-14 anni": 98, "15-64 anni": 523, "Oltre 65 anni": 245 }, "geometry": { "type": "Point", "coordinates": [ 13.100422450454801, 43.067165776546297 ] } },
{ "type": "Feature", "id": 64, "properties": { "Comune": "Serravalle di Chienti", "Popolazione residente": 1070, "0-14 anni": 114, "15-64 anni": 623, "Oltre 65 anni": 333 }, "geometry": { "type": "Point", "coordinates": [ 12.9484650184132, 42.9576614531167 ] } },
{ "type": "Feature", "id": 65, "properties": { "Comune": "Castorano", "Popolazione residente": 2380, "0-14 anni": 315, "15-64 anni": 1490, "Oltre 65 anni": 575 }, "geometry": { "type": "Point", "coordinates": [ 13.7337826677977, 42.894934351744602 ] } },
{ "type": "Feature", "id": 66, "properties": { "Comune": "Colli del Tronto", "Popolazione residente": 3668, "0-14 anni": 510, "15-64 anni": 2423, "Oltre 65 anni": 735 }, "geometry": { "type": "Point", "coordinates": [ 13.7455730424363, 42.870268725530401 ] } },
{ "type": "Feature", "id": 67, "properties": { "Comune": "Comunanza", "Popolazione residente": 3166, "0-14 anni": 414, "15-64 anni": 2026, "Oltre 65 anni": 726 }, "geometry": { "type": "Point", "coordinates": [ 13.434248842959301, 42.926539631789403 ] } },
{ "type": "Feature", "id": 68, "properties": { "Comune": "Pioraco", "Popolazione residente": 1134, "0-14 anni": 119, "15-64 anni": 696, "Oltre 65 anni": 319 }, "geometry": { "type": "Point", "coordinates": [ 12.993053583877799, 43.181948782461099 ] } },
{ "type": "Feature", "id": 69, "properties": { "Comune": "Tolentino", "Popolazione residente": 20069, "0-14 anni": 2695, "15-64 anni": 12384, "Oltre 65 anni": 4990 }, "geometry": { "type": "Point", "coordinates": [ 13.312547764022501, 43.208030532024097 ] } },
{ "type": "Feature", "id": 70, "properties": { "Comune": "Cossignano", "Popolazione residente": 978, "0-14 anni": 101, "15-64 anni": 596, "Oltre 65 anni": 281 }, "geometry": { "type": "Point", "coordinates": [ 13.684170908152501, 42.9844706756585 ] } },
{ "type": "Feature", "id": 71, "properties": { "Comune": "Poggio San Vicino", "Popolazione residente": 246, "0-14 anni": 25, "15-64 anni": 129, "Oltre 65 anni": 92 }, "geometry": { "type": "Point", "coordinates": [ 13.0710716517937, 43.3645992207259 ] } },
{ "type": "Feature", "id": 72, "properties": { "Comune": "Pollenza", "Popolazione residente": 6618, "0-14 anni": 940, "15-64 anni": 4062, "Oltre 65 anni": 1616 }, "geometry": { "type": "Point", "coordinates": [ 13.354057447220599, 43.262268403356998 ] } },
{ "type": "Feature", "id": 73, "properties": { "Comune": "Treia", "Popolazione residente": 9403, "0-14 anni": 1168, "15-64 anni": 5877, "Oltre 65 anni": 2358 }, "geometry": { "type": "Point", "coordinates": [ 13.315920819287401, 43.315438188013403 ] } },
{ "type": "Feature", "id": 74, "properties": { "Comune": "Urbisaglia", "Popolazione residente": 2628, "0-14 anni": 273, "15-64 anni": 1709, "Oltre 65 anni": 646 }, "geometry": { "type": "Point", "coordinates": [ 13.3921193331946, 43.204625745661701 ] } },
{ "type": "Feature", "id": 75, "properties": { "Comune": "Folignano", "Popolazione residente": 9241, "0-14 anni": 1313, "15-64 anni": 6199, "Oltre 65 anni": 1729 }, "geometry": { "type": "Point", "coordinates": [ 13.648698172674401, 42.8213666936267 ] } },
{ "type": "Feature", "id": 76, "properties": { "Comune": "Ussita", "Popolazione residente": 444, "0-14 anni": 44, "15-64 anni": 283, "Oltre 65 anni": 117 }, "geometry": { "type": "Point", "coordinates": [ 13.1633946668749, 42.942259208664403 ] } },
{ "type": "Feature", "id": 77, "properties": { "Comune": "Force", "Popolazione residente": 1354, "0-14 anni": 146, "15-64 anni": 855, "Oltre 65 anni": 353 }, "geometry": { "type": "Point", "coordinates": [ 13.495506812503001, 42.961848624003302 ] } },
{ "type": "Feature", "id": 78, "properties": { "Comune": "Ripe San Ginesio", "Popolazione residente": 852, "0-14 anni": 105, "15-64 anni": 526, "Oltre 65 anni": 221 }, "geometry": { "type": "Point", "coordinates": [ 13.3731313141296, 43.142659069442601 ] } },
{ "type": "Feature", "id": 79, "properties": { "Comune": "San Ginesio", "Popolazione residente": 3498, "0-14 anni": 367, "15-64 anni": 2097, "Oltre 65 anni": 1034 }, "geometry": { "type": "Point", "coordinates": [ 13.309695653444599, 43.103290650482698 ] } },
{ "type": "Feature", "id": 80, "properties": { "Comune": "Visso", "Popolazione residente": 1107, "0-14 anni": 102, "15-64 anni": 668, "Oltre 65 anni": 337 }, "geometry": { "type": "Point", "coordinates": [ 13.039132139716401, 42.937906198858002 ] } },
{ "type": "Feature", "id": 81, "properties": { "Comune": "Acquasanta Terme", "Popolazione residente": 2916, "0-14 anni": 285, "15-64 anni": 1785, "Oltre 65 anni": 846 }, "geometry": { "type": "Point", "coordinates": [ 13.4074889030192, 42.7601348664572 ] } },
{ "type": "Feature", "id": 82, "properties": { "Comune": "San Severino Marche", "Popolazione residente": 12726, "0-14 anni": 1525, "15-64 anni": 7779, "Oltre 65 anni": 3422 }, "geometry": { "type": "Point", "coordinates": [ 13.173875915805899, 43.268445676816398 ] } },
{ "type": "Feature", "id": 83, "properties": { "Comune": "Appignano del Tronto", "Popolazione residente": 1785, "0-14 anni": 203, "15-64 anni": 1105, "Oltre 65 anni": 477 }, "geometry": { "type": "Point", "coordinates": [ 13.6589837539975, 42.896834860221901 ] } },
{ "type": "Feature", "id": 84, "properties": { "Comune": "Monte San Martino", "Popolazione residente": 765, "0-14 anni": 99, "15-64 anni": 477, "Oltre 65 anni": 189 }, "geometry": { "type": "Point", "coordinates": [ 13.4448334750925, 43.032721933831603 ] } },
{ "type": "Feature", "id": 85, "properties": { "Comune": "Sant'Angelo in Pontano", "Popolazione residente": 1436, "0-14 anni": 172, "15-64 anni": 841, "Oltre 65 anni": 423 }, "geometry": { "type": "Point", "coordinates": [ 13.403535873835301, 43.103352136909002 ] } },
{ "type": "Feature", "id": 86, "properties": { "Comune": "Cascia", "Popolazione residente": 3217, "0-14 anni": 360, "15-64 anni": 2160, "Oltre 65 anni": 697 }, "geometry": { "type": "Point", "coordinates": [ 13.039495016735399, 42.699169693497097 ] } },
{ "type": "Feature", "id": 87, "properties": { "Comune": "Cerreto di Spoleto", "Popolazione residente": 1075, "0-14 anni": 125, "15-64 anni": 647, "Oltre 65 anni": 303 }, "geometry": { "type": "Point", "coordinates": [ 12.920566404937301, 42.815059926724302 ] } },
{ "type": "Feature", "id": 88, "properties": { "Comune": "Poggiodomo", "Popolazione residente": 117, "0-14 anni": 4, "15-64 anni": 45, "Oltre 65 anni": 68 }, "geometry": { "type": "Point", "coordinates": [ 12.924180534228, 42.723503945194601 ] } },
{ "type": "Feature", "id": 89, "properties": { "Comune": "Vallo di Nera", "Popolazione residente": 364, "0-14 anni": 46, "15-64 anni": 216, "Oltre 65 anni": 102 }, "geometry": { "type": "Point", "coordinates": [ 12.866812938261701, 42.776851951327501 ] } },
{ "type": "Feature", "id": 90, "properties": { "Comune": "Roccafluvione", "Popolazione residente": 2010, "0-14 anni": 214, "15-64 anni": 1279, "Oltre 65 anni": 517 }, "geometry": { "type": "Point", "coordinates": [ 13.439597305164099, 42.8492800657963 ] } },
{ "type": "Feature", "id": 91, "properties": { "Comune": "Offida", "Popolazione residente": 5058, "0-14 anni": 512, "15-64 anni": 3076, "Oltre 65 anni": 1470 }, "geometry": { "type": "Point", "coordinates": [ 13.7121360089617, 42.937962882784099 ] } },
{ "type": "Feature", "id": 92, "properties": { "Comune": "Rotella", "Popolazione residente": 906, "0-14 anni": 87, "15-64 anni": 567, "Oltre 65 anni": 252 }, "geometry": { "type": "Point", "coordinates": [ 13.5494458840432, 42.947985630776003 ] } },
{ "type": "Feature", "id": 93, "properties": { "Comune": "Venarotta", "Popolazione residente": 2066, "0-14 anni": 231, "15-64 anni": 1324, "Oltre 65 anni": 511 }, "geometry": { "type": "Point", "coordinates": [ 13.5031247612665, 42.887743730806299 ] } },
{ "type": "Feature", "id": 94, "properties": { "Comune": "Maltignano", "Popolazione residente": 2401, "0-14 anni": 300, "15-64 anni": 1589, "Oltre 65 anni": 512 }, "geometry": { "type": "Point", "coordinates": [ 13.688714789832799, 42.836227256264699 ] } },
{ "type": "Feature", "id": 95, "properties": { "Comune": "Montalto delle Marche", "Popolazione residente": 2122, "0-14 anni": 187, "15-64 anni": 1295, "Oltre 65 anni": 640 }, "geometry": { "type": "Point", "coordinates": [ 13.624841728202, 42.992394527932902 ] } },
{ "type": "Feature", "id": 96, "properties": { "Comune": "Montedinove", "Popolazione residente": 488, "0-14 anni": 38, "15-64 anni": 295, "Oltre 65 anni": 155 }, "geometry": { "type": "Point", "coordinates": [ 13.579768547578301, 42.974607293683398 ] } },
{ "type": "Feature", "id": 97, "properties": { "Comune": "Montegallo", "Popolazione residente": 523, "0-14 anni": 37, "15-64 anni": 279, "Oltre 65 anni": 207 }, "geometry": { "type": "Point", "coordinates": [ 13.332244197899, 42.841085292393501 ] } },
{ "type": "Feature", "id": 98, "properties": { "Comune": "Montemonaco", "Popolazione residente": 604, "0-14 anni": 54, "15-64 anni": 356, "Oltre 65 anni": 194 }, "geometry": { "type": "Point", "coordinates": [ 13.295434144990599, 42.8822246115271 ] } },
{ "type": "Feature", "id": 99, "properties": { "Comune": "Palmiano", "Popolazione residente": 196, "0-14 anni": 14, "15-64 anni": 129, "Oltre 65 anni": 53 }, "geometry": { "type": "Point", "coordinates": [ 13.4667193739861, 42.916378573476699 ] } },
{ "type": "Feature", "id": 100, "properties": { "Comune": "Polino", "Popolazione residente": 233, "0-14 anni": 16, "15-64 anni": 128, "Oltre 65 anni": 89 }, "geometry": { "type": "Point", "coordinates": [ 12.862797160995999, 42.581253142337999 ] } },
{ "type": "Feature", "id": 101, "properties": { "Comune": "Norcia", "Popolazione residente": 4957, "0-14 anni": 629, "15-64 anni": 3160, "Oltre 65 anni": 1168 }, "geometry": { "type": "Point", "coordinates": [ 13.122487384083399, 42.786676622618103 ] } },
{ "type": "Feature", "id": 102, "properties": { "Comune": "Sant'Anatolia di Narco", "Popolazione residente": 564, "0-14 anni": 68, "15-64 anni": 342, "Oltre 65 anni": 154 }, "geometry": { "type": "Point", "coordinates": [ 12.857846023540001, 42.7209075307197 ] } },
{ "type": "Feature", "id": 103, "properties": { "Comune": "Arrone", "Popolazione residente": 2763, "0-14 anni": 315, "15-64 anni": 1699, "Oltre 65 anni": 749 }, "geometry": { "type": "Point", "coordinates": [ 12.798567674458001, 42.567472492044899 ] } },
{ "type": "Feature", "id": 104, "properties": { "Comune": "Ferentillo", "Popolazione residente": 1913, "0-14 anni": 243, "15-64 anni": 1125, "Oltre 65 anni": 545 }, "geometry": { "type": "Point", "coordinates": [ 12.823206744410401, 42.6285073562006 ] } },
{ "type": "Feature", "id": 105, "properties": { "Comune": "Preci", "Popolazione residente": 724, "0-14 anni": 55, "15-64 anni": 453, "Oltre 65 anni": 216 }, "geometry": { "type": "Point", "coordinates": [ 13.036336325329399, 42.8640698719855 ] } },
{ "type": "Feature", "id": 106, "properties": { "Comune": "Montefranco", "Popolazione residente": 1276, "0-14 anni": 167, "15-64 anni": 796, "Oltre 65 anni": 313 }, "geometry": { "type": "Point", "coordinates": [ 12.753627576099101, 42.602028194192798 ] } },
{ "type": "Feature", "id": 107, "properties": { "Comune": "Monteleone di Spoleto", "Popolazione residente": 599, "0-14 anni": 60, "15-64 anni": 394, "Oltre 65 anni": 145 }, "geometry": { "type": "Point", "coordinates": [ 12.9461402029326, 42.642593124265296 ] } },
{ "type": "Feature", "id": 108, "properties": { "Comune": "Scheggino", "Popolazione residente": 461, "0-14 anni": 55, "15-64 anni": 284, "Oltre 65 anni": 122 }, "geometry": { "type": "Point", "coordinates": [ 12.8385416319909, 42.684914366995102 ] } },
{ "type": "Feature", "id": 109, "properties": { "Comune": "Sellano", "Popolazione residente": 1079, "0-14 anni": 111, "15-64 anni": 629, "Oltre 65 anni": 339 }, "geometry": { "type": "Point", "coordinates": [ 12.894643113230901, 42.898458452823 ] } },
{ "type": "Feature", "id": 110, "properties": { "Comune": "Spoleto", "Popolazione residente": 38218, "0-14 anni": 4522, "15-64 anni": 23246, "Oltre 65 anni": 10450 }, "geometry": { "type": "Point", "coordinates": [ 12.7080639713217, 42.7374765586801 ] } },
{ "type": "Feature", "id": 111, "properties": { "Comune": "Montefalcone Appennino", "Popolazione residente": 424, "0-14 anni": 38, "15-64 anni": 255, "Oltre 65 anni": 131 }, "geometry": { "type": "Point", "coordinates": [ 13.454740867459201, 42.988518124046799 ] } },
{ "type": "Feature", "id": 112, "properties": { "Comune": "Montegiorgio", "Popolazione residente": 6851, "0-14 anni": 866, "15-64 anni": 4265, "Oltre 65 anni": 1720 }, "geometry": { "type": "Point", "coordinates": [ 13.5405616469912, 43.134955958076901 ] } },
{ "type": "Feature", "id": 113, "properties": { "Comune": "Monteleone di Fermo", "Popolazione residente": 395, "0-14 anni": 34, "15-64 anni": 238, "Oltre 65 anni": 123 }, "geometry": { "type": "Point", "coordinates": [ 13.531292070519299, 43.057192982322903 ] } },
{ "type": "Feature", "id": 114, "properties": { "Comune": "Montelparo", "Popolazione residente": 778, "0-14 anni": 57, "15-64 anni": 486, "Oltre 65 anni": 235 }, "geometry": { "type": "Point", "coordinates": [ 13.5464592964028, 43.013440122171701 ] } },
{ "type": "Feature", "id": 115, "properties": { "Comune": "Monte Rinaldo", "Popolazione residente": 379, "0-14 anni": 28, "15-64 anni": 225, "Oltre 65 anni": 126 }, "geometry": { "type": "Point", "coordinates": [ 13.5816935530406, 43.0294661401106 ] } },
{ "type": "Feature", "id": 116, "properties": { "Comune": "Monte Vidon Corrado", "Popolazione residente": 731, "0-14 anni": 82, "15-64 anni": 442, "Oltre 65 anni": 207 }, "geometry": { "type": "Point", "coordinates": [ 13.4855426575221, 43.120736091597401 ] } },
{ "type": "Feature", "id": 117, "properties": { "Comune": "Micigliano", "Popolazione residente": 127, "0-14 anni": 12, "15-64 anni": 50, "Oltre 65 anni": 65 }, "geometry": { "type": "Point", "coordinates": [ 13.0481010725895, 42.453242772317701 ] } },
{ "type": "Feature", "id": 118, "properties": { "Comune": "Leonessa", "Popolazione residente": 2435, "0-14 anni": 202, "15-64 anni": 1499, "Oltre 65 anni": 734 }, "geometry": { "type": "Point", "coordinates": [ 13.0002943240495, 42.568152492520198 ] } },
{ "type": "Feature", "id": 119, "properties": { "Comune": "Poggio Bustone", "Popolazione residente": 2055, "0-14 anni": 235, "15-64 anni": 1322, "Oltre 65 anni": 498 }, "geometry": { "type": "Point", "coordinates": [ 12.8894548050264, 42.504225481556198 ] } },
{ "type": "Feature", "id": 120, "properties": { "Comune": "Accumoli", "Popolazione residente": 667, "0-14 anni": 65, "15-64 anni": 390, "Oltre 65 anni": 212 }, "geometry": { "type": "Point", "coordinates": [ 13.2441359948007, 42.695458660994298 ] } },
{ "type": "Feature", "id": 121, "properties": { "Comune": "Amatrice", "Popolazione residente": 2657, "0-14 anni": 257, "15-64 anni": 1550, "Oltre 65 anni": 850 }, "geometry": { "type": "Point", "coordinates": [ 13.2924534874368, 42.626252122559997 ] } },
{ "type": "Feature", "id": 122, "properties": { "Comune": "Antrodoco", "Popolazione residente": 2588, "0-14 anni": 285, "15-64 anni": 1641, "Oltre 65 anni": 662 }, "geometry": { "type": "Point", "coordinates": [ 13.1245278968594, 42.399214069593697 ] } },
{ "type": "Feature", "id": 123, "properties": { "Comune": "Borbona", "Popolazione residente": 617, "0-14 anni": 45, "15-64 anni": 374, "Oltre 65 anni": 198 }, "geometry": { "type": "Point", "coordinates": [ 13.1348179923499, 42.493535093959402 ] } },
{ "type": "Feature", "id": 124, "properties": { "Comune": "Borgo Velino", "Popolazione residente": 972, "0-14 anni": 111, "15-64 anni": 622, "Oltre 65 anni": 239 }, "geometry": { "type": "Point", "coordinates": [ 13.063592200248699, 42.390176671427902 ] } },
{ "type": "Feature", "id": 125, "properties": { "Comune": "Cantalice", "Popolazione residente": 2755, "0-14 anni": 303, "15-64 anni": 1798, "Oltre 65 anni": 654 }, "geometry": { "type": "Point", "coordinates": [ 12.895010983983401, 42.468154495972499 ] } },
{ "type": "Feature", "id": 126, "properties": { "Comune": "Posta", "Popolazione residente": 694, "0-14 anni": 51, "15-64 anni": 424, "Oltre 65 anni": 219 }, "geometry": { "type": "Point", "coordinates": [ 13.0810948113796, 42.5170175178881 ] } },
{ "type": "Feature", "id": 127, "properties": { "Comune": "Castel Sant'Angelo", "Popolazione residente": 1308, "0-14 anni": 127, "15-64 anni": 797, "Oltre 65 anni": 384 }, "geometry": { "type": "Point", "coordinates": [ 13.0183251485296, 42.398354853512402 ] } },
{ "type": "Feature", "id": 128, "properties": { "Comune": "Cittaducale", "Popolazione residente": 6828, "0-14 anni": 843, "15-64 anni": 4390, "Oltre 65 anni": 1595 }, "geometry": { "type": "Point", "coordinates": [ 12.967187751146099, 42.386872150201803 ] } },
{ "type": "Feature", "id": 129, "properties": { "Comune": "Rieti", "Popolazione residente": 47698, "0-14 anni": 5706, "15-64 anni": 30573, "Oltre 65 anni": 11419 }, "geometry": { "type": "Point", "coordinates": [ 12.855631643926699, 42.401759507460902 ] } },
{ "type": "Feature", "id": 130, "properties": { "Comune": "Rivodutri", "Popolazione residente": 1253, "0-14 anni": 137, "15-64 anni": 772, "Oltre 65 anni": 344 }, "geometry": { "type": "Point", "coordinates": [ 12.8909211967994, 42.543830461041303 ] } },
{ "type": "Feature", "id": 131, "properties": { "Comune": "Cittareale", "Popolazione residente": 482, "0-14 anni": 29, "15-64 anni": 277, "Oltre 65 anni": 176 }, "geometry": { "type": "Point", "coordinates": [ 13.147972835984101, 42.602494544899997 ] } },
{ "type": "Feature", "id": 132, "properties": { "Comune": "Cagnano Amiterno", "Popolazione residente": 1369, "0-14 anni": 134, "15-64 anni": 793, "Oltre 65 anni": 442 }, "geometry": { "type": "Point", "coordinates": [ 13.198934970959399, 42.451633236004902 ] } },
{ "type": "Feature", "id": 133, "properties": { "Comune": "Farindola", "Popolazione residente": 1518, "0-14 anni": 169, "15-64 anni": 882, "Oltre 65 anni": 467 }, "geometry": { "type": "Point", "coordinates": [ 13.813558872334101, 42.432186858822099 ] } },
{ "type": "Feature", "id": 134, "properties": { "Comune": "Pietracamela", "Popolazione residente": 271, "0-14 anni": 12, "15-64 anni": 173, "Oltre 65 anni": 86 }, "geometry": { "type": "Point", "coordinates": [ 13.5430959806005, 42.497608181202096 ] } },
{ "type": "Feature", "id": 135, "properties": { "Comune": "Castel Castagna", "Popolazione residente": 500, "0-14 anni": 52, "15-64 anni": 315, "Oltre 65 anni": 133 }, "geometry": { "type": "Point", "coordinates": [ 13.731219598347799, 42.541436468198398 ] } },
{ "type": "Feature", "id": 136, "properties": { "Comune": "Colledara", "Popolazione residente": 2179, "0-14 anni": 236, "15-64 anni": 1461, "Oltre 65 anni": 482 }, "geometry": { "type": "Point", "coordinates": [ 13.684762890358, 42.545127440450798 ] } },
{ "type": "Feature", "id": 137, "properties": { "Comune": "Fano Adriano", "Popolazione residente": 296, "0-14 anni": 12, "15-64 anni": 183, "Oltre 65 anni": 101 }, "geometry": { "type": "Point", "coordinates": [ 13.5708965993215, 42.543215269572698 ] } },
{ "type": "Feature", "id": 138, "properties": { "Comune": "Isola del Gran Sasso", "Popolazione residente": 4773, "0-14 anni": 596, "15-64 anni": 3033, "Oltre 65 anni": 1144 }, "geometry": { "type": "Point", "coordinates": [ 13.6381279677835, 42.485985419421702 ] } },
{ "type": "Feature", "id": 139, "properties": { "Comune": "Barete", "Popolazione residente": 737, "0-14 anni": 85, "15-64 anni": 464, "Oltre 65 anni": 188 }, "geometry": { "type": "Point", "coordinates": [ 13.2750541542857, 42.449346880390003 ] } },
{ "type": "Feature", "id": 140, "properties": { "Comune": "Pizzoli", "Popolazione residente": 4326, "0-14 anni": 675, "15-64 anni": 2965, "Oltre 65 anni": 686 }, "geometry": { "type": "Point", "coordinates": [ 13.3323495464295, 42.450314313029203 ] } }
]
}
