{"type":"FeatureCollection","name":"name_to_define","features":[{"type":"Feature","properties":{"Associazione":"Protezione Civile Alto Sangro<br \/> ","Rischio":"Terremoto, Maremoto ","Quando":"15\/10\/2023 09:30-19:00<br \/>","Regione":"Abruzzo","Provincia":"L'Aquila","Comune":"Alfedena","Indirizzo":"Piazza Umberto I, Alfedena (AQ)","Link":"https:\/\/www.facebook.com\/profile.php?id=61551809802471 "},"geometry":{"type":"Point","coordinates":[14.032763094351,41.734520649607]}},{"type":"Feature","properties":{"Associazioni":"Croce Blu Marsica Soccorso<br \/> CROCE VERDE AVEZZANO SOCCORSO ONLUS<br \/> Croce Verde Civitella Roveto<br \/> Gruppo Comunale Volontari di Protezione Civile Avezzano<br \/> Gruppo Volontari Magliano de Marsi ONLUS<br \/> ","Rischi":"Alluvione, Terremoto, Maremoto ","Quando":"14\/10\/2023 09:00-13:00<br \/>15\/10\/2023 09:00-19:00<br \/>","Regione":"Abruzzo","Provincia":"L'Aquila","Comune":"Avezzano","Indirizzo":"Piazza Risorgimento, Avezzano (AQ)","Link":"https:\/\/www.facebook.com\/inrmarsica?locale=it_IT "},"geometry":{"type":"Point","coordinates":[13.426358732465,42.035126285]}},{"type":"Feature","properties":{"Associazioni":"Gruppo Comunale Volontari Protezione Civile Carsoli <br \/> Gruppo Comunale Protezione Civile Pereto<br \/> ","Rischi":"Alluvione, Terremoto, Maremoto ","Quando":"14\/10\/2023 10:00-18:00<br \/>","Regione":"Abruzzo","Provincia":"L'Aquila","Comune":"Carsoli","Indirizzo":"Piazza della Libert\u00e0, 1, Carsoli (AQ)","Link":"https:\/\/www.facebook.com\/profile.php?id=61551843121210 "},"geometry":{"type":"Point","coordinates":[13.083056095423,42.096452298991]}},{"type":"Feature","properties":{"Associazione":"Protezione Civile Alto Sangro<br \/> ","Rischio":"Terremoto, Maremoto ","Quando":"14\/10\/2023 09:30-19:00<br \/>","Regione":"Abruzzo","Provincia":"L'Aquila","Comune":"Castel di Sangro","Indirizzo":"Piazza Patini, Castel di Sangro (AQ)","Link":"https:\/\/www.facebook.com\/IoNonRischioCasteldiSangro https:\/\/instagram.com\/iononrischio_casteldisangro?igshid=OGQ5ZDc2ODk2ZA== "},"geometry":{"type":"Point","coordinates":[14.108358840478,41.78398425936]}},{"type":"Feature","properties":{"Associazione":"gruppo intercomunale di protezione civile \"comunit\u00e0 montana sirentina\"<br \/> ","Rischio":"Terremoto, Maremoto ","Quando":"15\/10\/2023 14:30-18:30<br \/>","Regione":"Abruzzo","Provincia":"L'Aquila","Comune":"Goriano Sicoli","Indirizzo":"Piazza della repubblica , Goriano Sicoli (AQ)","Link":"https:\/\/instagram.com\/iononrischiocms?igshid=OGQ5ZDc2ODk2ZA== "},"geometry":{"type":"Point","coordinates":[13.774559497833,42.079718905531]}},{"type":"Feature","properties":{"Associazioni":"Volontari Abruzzesi per la Protezione Civile - VAPC -<br \/> Associazione Nazionale Coordinamento Farmacisti Volontari Protezione Civile sezione di L'Aquila ODV<br \/> Croce Rossa Italiana<br \/> P.A.GRAN SASSO SOCCORSO L'AQUILA ODV<br \/> Pro Loco di Coppito<br \/> ","Rischio":"Terremoto, Maremoto ","Quando":"15\/10\/2023 09:00-18:30<br \/>","Regione":"Abruzzo","Provincia":"L'Aquila","Comune":"L'Aquila","Indirizzo":"Piazza Battaglione degli Alpini, L'Aquila (AQ)","Link":"https:\/\/www.facebook.com\/iononrischioAQ\/ "},"geometry":{"type":"Point","coordinates":[13.401532460693,42.353583305059]}},{"type":"Feature","properties":{"Associazioni":"Gruppo Comunale Volontari Protezione Civile Carsoli <br \/> Gruppo Comunale Protezione Civile Pereto<br \/> ","Rischi":"Alluvione, Terremoto, Maremoto ","Quando":"15\/10\/2023 10:00-13:00<br \/>","Regione":"Abruzzo","Provincia":"L'Aquila","Comune":"Pereto","Indirizzo":"Piazza Don angelo Penna, Pereto (AQ)","Link":"https:\/\/www.facebook.com\/profile.php?id=61551843121210, https:\/\/www.facebook.com\/profile.php?id=61550996955941 "},"geometry":{"type":"Point","coordinates":[13.101436196475,42.057986296589]}},{"type":"Feature","properties":{"Associazione":"P.I.V.E.C. L'AQUILA<br \/> ","Rischio":"Terremoto, Maremoto ","Quando":"14\/10\/2023 08:00-19:00<br \/>","Regione":"Abruzzo","Provincia":"L'Aquila","Comune":"Pizzoli","Indirizzo":"Corso Sallustio, 99, Pizzoli (AQ)","Link":"https:\/\/www.comune.pizzoli.aq.it\/ https:\/\/www.facebook.com\/Pivec pivec l'aquila https:\/\/www.instagram.pivec.laquila_official.it "},"geometry":{"type":"Point","coordinates":[13.301392118431,42.436050446922]}},{"type":"Feature","properties":{"Associazione":"Gruppo Comunale Volontari di Protezione Civile<br \/> ","Rischio":"Terremoto, Maremoto ","Quando":"14\/10\/2023 09:30-19:00<br \/>","Regione":"Abruzzo","Provincia":"L'Aquila","Comune":"Pratola Peligna","Indirizzo":"PIAZZA MADONNA DELLA LIBERA, Pratola Peligna (AQ)","Link":"https:\/\/www.facebook.com\/profile.php?id=100064803878056 "},"geometry":{"type":"Point","coordinates":[13.874141517568,42.097081213492]}},{"type":"Feature","properties":{"Associazione":"Gruppo Comunale Volontari di Protezione Civile<br \/> ","Rischio":"Terremoto, Maremoto ","Quando":"15\/10\/2023 09:30-19:00<br \/>","Regione":"Abruzzo","Provincia":"L'Aquila","Comune":"Pratola Peligna","Indirizzo":"Piazza Madonna della Libera, Pratola Peligna (AQ)","Link":"https:\/\/www.facebook.com\/profile.php?id=100064803878056 "},"geometry":{"type":"Point","coordinates":[13.874280922843,42.097367805373]}},{"type":"Feature","properties":{"Associazione":"Gruppo comunale raiano<br \/> ","Rischi":"Alluvione, Terremoto, Maremoto ","Quando":"15\/10\/2023 09:00-16:30<br \/>","Regione":"Abruzzo","Provincia":"L'Aquila","Comune":"Raiano","Indirizzo":"piazza postiglione, Raiano (AQ)","Link":"https:\/\/www.facebook.com\/iononrischioraiano\/ "},"geometry":{"type":"Point","coordinates":[13.812897007659,42.102953314584]}},{"type":"Feature","properties":{"Associazione":"P.I.V.E.C. L'Aquila distaccamento di Castel di Sangro<br \/> ","Rischi":"Alluvione, Terremoto, Maremoto ","Quando":"14\/10\/2023 09:00-18:00<br \/>15\/10\/2023 09:00-18:00<br \/>","Regione":"Abruzzo","Provincia":"L'Aquila","Comune":"Roccaraso","Indirizzo":"Piazza Giovanni Leone, Roccaraso (AQ)","Link":"https:\/\/www.instagram.com\/iononrischio_roccaraso\/ "},"geometry":{"type":"Point","coordinates":[14.079545849737,41.846821742548]}},{"type":"Feature","properties":{"Associazione":"GRUPPO COMUNALE VOLONTARIATO PROTEZIONE CIVILE CITTA' DI SULMONA<br \/> ","Rischi":"Alluvione, Terremoto, Maremoto ","Quando":"15\/10\/2023 10:00-19:00<br \/>","Regione":"Abruzzo","Provincia":"L'Aquila","Comune":"Sulmona","Indirizzo":"Piazza XX Settembre, Sulmona (AQ)","Link":"https:\/\/www.facebook.com\/IononrischioSulmona https:\/\/instagram.com\/iononrischiosulmona?igshid=MzRlODBiNWFlZA== "},"geometry":{"type":"Point","coordinates":[13.924277283331,42.048648499122]}},{"type":"Feature","properties":{"Associazione":"ASSOCIAZIONE MADONNA DELL'ASSUNTA P.C. DELEGAZIONE CASALBORDINO E SEDE DISTACCATA DI PAGLIETA<br \/> ","Rischi":"Alluvione, Terremoto, Maremoto ","Quando":"15\/10\/2023 08:30-13:00<br \/>","Regione":"Abruzzo","Provincia":"Chieti","Comune":"Casalbordino","Indirizzo":"PIAZZA GARIBALDI , Casalbordino (CH)","Link":"www.protezionecivileodvcasalbordino.it "},"geometry":{"type":"Point","coordinates":[14.583625709452,42.150036098768]}},{"type":"Feature","properties":{"Associazione":"N. O. T.  Nucleo Operativo Teate<br \/> ","Rischio":"Terremoto, Maremoto ","Quando":"15\/10\/2023 08:00-20:00<br \/>","Regione":"Abruzzo","Provincia":"Chieti","Comune":"Chieti","Indirizzo":"Chieti, Chieti (CH)","Link":"https:\/\/iononrischio.protezione civile.it\/ https:\/\/www.facebook.com\/io.non.rischio.Chieti?locale=it_IT "},"geometry":{"type":"Point","coordinates":[14.165950858228,42.348608160561]}},{"type":"Feature","properties":{"Associazione":"N.o.v.s. Nucleo Operativo Volontari della Sicurezza <br \/> ","Rischi":"Alluvione, Terremoto, Maremoto ","Quando":"15\/10\/2023 10:00-12:30<br \/>","Regione":"Abruzzo","Provincia":"Chieti","Comune":"Fossacesia","Indirizzo":"Via  Lungomare , Fossacesia (CH)","Link":"https:\/\/www.facebook.com\/profile.php?id=100086620964395 "},"geometry":{"type":"Point","coordinates":[14.513331055641,42.248907293461]}},{"type":"Feature","properties":{"Associazione":"ASSOCIAZIONE MADONNA DELL'ASSUNTA P.C. DELEGAZIONE CASALBORDINO E SEDE DISTACCATA DI PAGLIETA<br \/> ","Rischi":"Alluvione, Terremoto, Maremoto ","Quando":"14\/10\/2023 08:30-13:00<br \/>","Regione":"Abruzzo","Provincia":"Chieti","Comune":"Paglieta","Indirizzo":"PIAZZA ROMA, Paglieta (CH)","Link":"PROTEZIONE CIVILE PAGLIETA "},"geometry":{"type":"Point","coordinates":[14.497584964941,42.162771937102]}},{"type":"Feature","properties":{"Associazioni":"Nucleo Volontari San Giovanni Teatino<br \/> CISOM Corpo Italiano di Soccorso dell'Ordine di Malta - Raggruppamento Abruzzo<br \/> ","Rischi":"Alluvione, Terremoto, Maremoto ","Quando":"14\/10\/2023 09:00-20:00<br \/>","Regione":"Abruzzo","Provincia":"Chieti","Comune":"San Giovanni Teatino","Indirizzo":"Via Po , San Giovanni Teatino (CH)","Link":"https:\/\/www.facebook.com\/profile.php?id=100086073176802 "},"geometry":{"type":"Point","coordinates":[14.168197298531,42.41513679451]}},{"type":"Feature","properties":{"Associazioni":"Nucleo Volontari San Giovanni Teatino<br \/> Confraternita di Misericordia di Chieti ODV <br \/> Gruppo Comunale Volontari Protezione Civile Francavilla al Mare<br \/> ","Rischi":"Alluvione, Terremoto, Maremoto ","Quando":"15\/10\/2023 09:00-13:00<br \/>","Regione":"Abruzzo","Provincia":"Chieti","Comune":"San Giovanni Teatino","Indirizzo":"Piazza San Rocco loc. Sambuceto , San Giovanni Teatino (CH)","Link":"https:\/\/www.facebook.com\/profile.php?id=100086073176802 "},"geometry":{"type":"Point","coordinates":[14.187325754014,42.423287428882]}},{"type":"Feature","properties":{"Associazione":"Protezione Civile Maiella Morrone<br \/> ","Rischi":"Alluvione, Terremoto, Maremoto ","Quando":"14\/10\/2023 09:00-13:00<br \/> ","Regione":"Abruzzo","Provincia":"Pescara","Comune":"Abbateggio","Indirizzo":"Piazza 06 aprile 2009, Abbateggio (PE)","Link":"pcmaiellamorrone.it https:\/\/www.facebook.com\/profile.php?id=100086296063587&locale=hi_IN "},"geometry":{"type":"Point","coordinates":[14.010770916939,42.225341881587]}},{"type":"Feature","properties":{"Associazioni":"Misericordia di Alanno<br \/> Confraternita di Misericordia di San Benedetto dei Marsi ODV<br \/> Fraternita Misericordia di Pescara ODV<br \/> ","Rischio":"Terremoto, Maremoto ","Quando":"15\/10\/2023 10:30-17:30<br \/>","Regione":"Abruzzo","Provincia":"Pescara","Comune":"Alanno","Indirizzo":"Piazza Alcide De Gasperi , Alanno (PE)","Link":"https:\/\/www.facebook.com\/misericordia.dialanno https:\/\/instagram.com\/misericordiadialanno?igshid=OGQ5ZDc2ODk2ZA== "},"geometry":{"type":"Point","coordinates":[14.0060287714,42.289226852023]}},{"type":"Feature","properties":{"Associazione":"PROTEZIONE CIVILE CEPAGATTI \"TORRE ALEX\"<br \/> ","Rischio":"Terremoto, Maremoto ","Quando":"15\/10\/2023 10:00-19:00<br \/>","Regione":"Abruzzo","Provincia":"Pescara","Comune":"Cepagatti","Indirizzo":"VIA NAZIOANLE,74 CENRO COMMERCIALE BORGO D'ABRUZZO, Cepagatti (PE)","Link":"https:\/\/www.facebook.com\/IoNonRischioCepagatti?locale=it_IT "},"geometry":{"type":"Point","coordinates":[14.154814708981,42.415362698486]}},{"type":"Feature","properties":{"Associazione":"P.I.V.E.C. Distaccamento Farindola <br \/> ","Rischio":"Terremoto, Maremoto ","Quando":"15\/10\/2023 10:00-13:00<br \/>","Regione":"Abruzzo","Provincia":"Pescara","Comune":"Civitella Casanova","Indirizzo":"c.so Umberto I, Civitella Casanova (PE)","Link":"https:\/\/www.facebook.com\/search\/top?q=io%20non%20rischio%20farindola%20 https:\/\/instagram.com\/iononrischiofarindola?igshid=MzMyNGUyNmU2YQ== "},"geometry":{"type":"Point","coordinates":[13.889255798214,42.364745660024]}},{"type":"Feature","properties":{"Associazione":"P.I.V.E.C. Distaccamento Farindola <br \/> ","Rischi":"Alluvione, Terremoto, Maremoto ","Quando":"14\/10\/2023 15:00-18:00<br \/>","Regione":"Abruzzo","Provincia":"Pescara","Comune":"Farindola","Indirizzo":"p.zza mazzocca , Farindola (PE)","Link":"https:\/\/www.facebook.com\/search\/top?q=io%20non%20rischio%20farindola%20 https:\/\/instagram.com\/iononrischiofarindola?igshid=MzMyNGUyNmU2YQ== "},"geometry":{"type":"Point","coordinates":[13.822138818706,42.441569647633]}},{"type":"Feature","properties":{"Associazioni":"VAL PESCARA Protezione Civile<br \/> A.E.F.I. Pescara<br \/> Modavi Pescara <br \/> UNITALSI<br \/> ","Rischi":"Alluvione, Terremoto, Maremoto ","Quando":"14\/10\/2023 10:01-13:01<br \/>15\/10\/2023 09:00-13:00<br \/>","Regione":"Abruzzo","Provincia":"Pescara","Comune":"Pescara","Indirizzo":"Via Caravaggio, Pescara (PE)","Link":"www.pcvalpescara.it https:\/\/www.facebook.com\/iononrischioPE "},"geometry":{"type":"Point","coordinates":[14.188439293626,42.483113453624]}},{"type":"Feature","properties":{"Associazione":"Eracle Templari Federiciani aps<br \/> ","Rischi":"Alluvione, Terremoto, Maremoto ","Quando":"14\/10\/2023 09:30-17:00<br \/>","Regione":"Abruzzo","Provincia":"Pescara","Comune":"Pescara","Indirizzo":"piazza sacro cuore, Pescara (PE)","Link":"https:\/\/www.facebook.com\/profile.php?id=61552007222303 "},"geometry":{"type":"Point","coordinates":[14.206924231883,42.470311550421]}},{"type":"Feature","properties":{"Associazioni":"Gruppo Comunale Volontari Protezione Civile Pescara<br \/> Infinity<br \/> Volontari Senza Frontiere ODV - Pescara<br \/> ","Rischi":"Alluvione, Terremoto, Maremoto ","Quando":"15\/10\/2023 10:00-18:59<br \/>","Regione":"Abruzzo","Provincia":"Pescara","Comune":"Pescara","Indirizzo":"Piazza della Rinascita, Pescara (PE)","Link":"https:\/\/www.facebook.com\/profile.php?id=61551524573499 "},"geometry":{"type":"Point","coordinates":[14.209400585246,42.472646383769]}},{"type":"Feature","properties":{"Associazione":"Protezione Civile Monti Della Laga<br \/> ","Rischio":"Terremoto, Maremoto ","Quando":"14\/10\/2023 09:30-13:00<br \/>14\/10\/2023 15:00-18:00<br \/>15\/10\/2023 09:00-13:00<br \/>15\/10\/2023 15:00-18:00<br \/>","Regione":"Abruzzo","Provincia":"Teramo","Comune":"Campli","Indirizzo":"Piazza Vittorio Emanuele II, Campli (TE)","Link":"https:\/\/www.facebook.com\/profile.php?id=100085291675110&locale=it_IT "},"geometry":{"type":"Point","coordinates":[13.686258021285,42.726182221647]}},{"type":"Feature","properties":{"Associazione":"GVPC  Giulianova<br \/> ","Rischio":"Alluvione ","Quando":"14\/10\/2023 09:00-19:00<br \/>","Regione":"Abruzzo","Provincia":"Teramo","Comune":"Giulianova","Indirizzo":"Piazza Fosse Ardeatine, Giulianova (TE)","Link":"http:\/\/bachecaprotezionecivilegiulianova.blogspot.com\/ http:\/\/www.facebook.com\/iononrischio-giulianova https:\/\/twitter.com\/GvpcGiulianova"},"geometry":{"type":"Point","coordinates":[13.966946383741,42.753542558799]}},{"type":"Feature","properties":{"Associazione":"PROS ONLUS PINETO<br \/> ","Rischio":"Alluvione ","Quando":"15\/10\/2023 07:00-20:00<br \/>","Regione":"Abruzzo","Provincia":"Teramo","Comune":"Pineto","Indirizzo":"Via Milano 1, Pineto (TE)","Link":"https:\/\/www.facebook.com\/prospineto "},"geometry":{"type":"Point","coordinates":[14.067036670172,42.607871483921]}},{"type":"Feature","properties":{"Associazione":"Corpo Volontari Protezione Civile Silvi ODV-ETS<br \/> ","Rischio":"Alluvione ","Quando":"15\/10\/2023 09:30-12:30<br \/>","Regione":"Abruzzo","Provincia":"Teramo","Comune":"Silvi","Indirizzo":"Piazza Fermi (Iris), Silvi (TE)","Link":"https:\/\/protezionecivilesilvi.it https:\/\/www.facebook.com\/ProtezioneCivileSilviOnlus\/?locale=it_IT https:\/\/www.instagram.com\/protezionecivilesilvi\/ "},"geometry":{"type":"Point","coordinates":[14.120661020279,42.550811969275]}},{"type":"Feature","properties":{"Associazione":"Croce Rossa Italiana - Comitato di Matera<br \/> ","Rischi":"Alluvione, Terremoto, Maremoto ","Quando":"15\/10\/2023 10:00-20:00<br \/> ","Regione":"Basilicata","Provincia":"Matera","Comune":"Irsina","Indirizzo":"piazza XXV Luglio, Irsina (MT)","Link":"https:\/\/www.facebook.com\/profile.php?id=100064968063250 "},"geometry":{"type":"Point","coordinates":[16.239791057407,40.748520874355]}},{"type":"Feature","properties":{"Associazioni":"GRUPPO LUCANO MATERA<br \/> AGESCI BASILICATA - Zona 4 Fiumi<br \/> Croce Rossa Italiana - Comitato di Matera<br \/> ","Rischio":"Terremoto, Maremoto ","Quando":"15\/10\/2023 09:00-21:00<br \/>","Regione":"Basilicata","Provincia":"Matera","Comune":"Matera","Indirizzo":"Piazza Vittorio Veneto , Matera (MT)","Link":"Protezione Civile Gruppo Lucano Matera Protezione Civile Gruppo Lucano Matera "},"geometry":{"type":"Point","coordinates":[16.606387659403,40.666754702878]}},{"type":"Feature","properties":{"Associazione":"Croce Rossa Italiana - Comitato di Matera<br \/> ","Rischi":"Alluvione, Terremoto, Maremoto ","Quando":"15\/10\/2023 10:00-20:00<br \/> ","Regione":"Basilicata","Provincia":"Matera","Comune":"Montalbano Jonico","Indirizzo":"piazza Risorgimento, Montalbano Jonico (MT)","Link":"https:\/\/www.facebook.com\/profile.php?id=100064968063250 "},"geometry":{"type":"Point","coordinates":[16.567904940234,40.288768383046]}},{"type":"Feature","properties":{"Associazione":"Protezione Civile Balvano<br \/> ","Rischio":"Terremoto, Maremoto ","Quando":"14\/10\/2023 09:30-13:00<br \/>15\/10\/2023 09:30-13:00<br \/>","Regione":"Basilicata","Provincia":"Potenza","Comune":"Balvano","Indirizzo":"Via Giovanni Paolo II, Balvano (PZ)","Link":"https:\/\/protezionecivilebalvano.org\/ https:\/\/m.facebook.com\/people\/Io-non-rischio-Balvano\/100086251297174\/ https:\/\/www.instagram.com\/io_non_rischio_balvano\/?hl=it "},"geometry":{"type":"Point","coordinates":[15.513067580152,40.650238494032]}},{"type":"Feature","properties":{"Associazioni":"PUBBLICA ASSISTENZA LAVELLO ODV<br \/> Protezione civile Gruppo Lucano Lavello <br \/> ","Rischi":"Alluvione, Terremoto, Maremoto ","Quando":"14\/10\/2023 16:00-20:00<br \/>15\/10\/2023 10:00-20:00<br \/>","Regione":"Basilicata","Provincia":"Potenza","Comune":"Lavello","Indirizzo":"PIAZZA SACRO CUORE, Lavello (PZ)","Link":"https:\/\/www.facebook.com\/pubblicaassistenzalavello\/?locale=it_IT "},"geometry":{"type":"Point","coordinates":[15.788465502529,41.044602924752]}},{"type":"Feature","properties":{"Associazione":"Associazione Protezione Civile Gruppo Lucano Marsiconuovo<br \/> ","Rischio":"Terremoto, Maremoto ","Quando":"15\/10\/2023 09:30-13:30<br \/> ","Regione":"Basilicata","Provincia":"Potenza","Comune":"Marsico Nuovo","Indirizzo":"Umberto I, Marsico Nuovo (PZ)","Link":"www.protezionecivilemarsiconuovo.it,  facebook: Prot. Civ.  MarsicoNuovo Gruppo Lucano; Instagram: pcgl_marsico_nuovo. "},"geometry":{"type":"Point","coordinates":[15.7341797496,40.420067003013]}},{"type":"Feature","properties":{"Associazione":"Protezione Civile Gruppo Lucano sede Montemurro<br \/> ","Rischio":"Terremoto, Maremoto ","Quando":"15\/10\/2023 09:30-13:00<br \/>","Regione":"Basilicata","Provincia":"Potenza","Comune":"Montemurro","Indirizzo":"PIAZZA GIACINTO ALBINI, Montemurro (PZ)","Link":"https:\/\/www.facebook.com\/protezionecivile.sedemontemurro "},"geometry":{"type":"Point","coordinates":[15.993746646207,40.297825285897]}},{"type":"Feature","properties":{"Associazione":"protezione civile Aquile Lucane<br \/> ","Rischi":"Alluvione, Terremoto, Maremoto ","Quando":"15\/10\/2023 10:00-18:00<br \/>","Regione":"Basilicata","Provincia":"Potenza","Comune":"Pignola","Indirizzo":"p.zza del Seggio, Pignola (PZ)","Link":"https:\/\/www.facebook.com\/profile.php?id=100086154561974 "},"geometry":{"type":"Point","coordinates":[15.95978680066,40.642288930731]}},{"type":"Feature","properties":{"Associazioni":"Protezione Civile Gruppo Lucano - Potenza -<br \/> Associazione Regionale Ingegneri per l'Emergenza Ambientale e Sismica della Basilicata (A.R.I.E.S. BASILICATA OdV)<br \/> ","Rischi":"Alluvione, Terremoto, Maremoto ","Quando":"14\/10\/2023 10:00-20:00<br \/>15\/10\/2023 10:00-20:00<br \/>","Regione":"Basilicata","Provincia":"Potenza","Comune":"Potenza","Indirizzo":"Piazza Don Bosco, snc, Potenza (PZ)","Link":"https:\/\/www.facebook.com\/profile.php?id=61550967706295 "},"geometry":{"type":"Point","coordinates":[15.796872732218,40.647137499583]}},{"type":"Feature","properties":{"Associazione":"Associazione di Protezione Civile Gruppo Lucano sede di Sant'Angelo le Fratte - odv<br \/> ","Rischi":"Alluvione, Campi Flegrei, Stromboli, Vulcano, Terremoto, Maremoto ","Quando":"15\/10\/2023 09:00-14:00<br \/>","Regione":"Basilicata","Provincia":"Potenza","Comune":"Sant'Angelo Le Fratte","Indirizzo":"Piazza dei Martiri, Sant'Angelo Le Fratte (PZ)","Link":"https:\/\/instagram.com\/iononrischio_santangelolefratt?igshid=OGQ5ZDc2ODk2ZA== "},"geometry":{"type":"Point","coordinates":[15.559116336822,40.546045622667]}},{"type":"Feature","properties":{"Associazione":"protezione civile Aquile Lucane<br \/> ","Rischi":"Alluvione, Terremoto, Maremoto ","Quando":"14\/10\/2023 09:00-13:00<br \/>","Regione":"Basilicata","Provincia":"Potenza","Comune":"Tito","Indirizzo":"Via Roma, Tito (PZ)","Link":"https:\/\/www.facebook.com\/pages\/protezione%20civile%20aquile%20lucane\/108654665876156\/ "},"geometry":{"type":"Point","coordinates":[15.992923218452,40.604764929892]}},{"type":"Feature","properties":{"Associazione":"Pubblica Assistenza Protezione Civile Venosa<br \/> ","Rischio":"Terremoto, Maremoto ","Quando":"15\/10\/2023 09:00-13:00<br \/>15\/10\/2023 16:00-18:00<br \/>","Regione":"Basilicata","Provincia":"Potenza","Comune":"Venosa","Indirizzo":"via tangorra  venosa, Venosa (PZ)","Link":"https:\/\/www.facebook.com\/profile.php?id=100068238815208 "},"geometry":{"type":"Point","coordinates":[15.816881584686,40.961027675793]}},{"type":"Feature","properties":{"Associazione":"Associazione Protezione Civile Gruppo Lucano sede di Viggianello ODV<br \/> ","Rischio":"Terremoto, Maremoto ","Quando":"15\/10\/2023 10:00-13:00<br \/>15\/10\/2023 15:00-18:00<br \/>","Regione":"Basilicata","Provincia":"Potenza","Comune":"Viggianello","Indirizzo":"c.da Gallizzi , Viggianello (PZ)","Link":"https:\/\/www.facebook.com\/INRViggianello\/ "},"geometry":{"type":"Point","coordinates":[16.061171783257,39.993540993621]}},{"type":"Feature","properties":{"Associazione":"Protezione Civile Gruppo Lucano <br \/> ","Rischio":"Terremoto, Maremoto ","Quando":"14\/10\/2023 10:00-18:00<br \/> 15\/10\/2023 10:00-18:00<br \/> ","Regione":"Basilicata","Provincia":"Potenza","Comune":"Viggiano","Indirizzo":"Piazza Regina delle Genti Lucane, Viggiano (PZ)","Link":"https:\/\/pcgl.info\/ https:\/\/www.facebook.com\/pcglcoordinamento "},"geometry":{"type":"Point","coordinates":[15.902014332432,40.339875117758]}},{"type":"Feature","properties":{"Associazione":"gruppo protezione civile acri<br \/> ","Rischio":"Terremoto, Maremoto ","Quando":"14\/10\/2023 10:00-17:00<br \/>15\/10\/2023 10:00-13:00<br \/>","Regione":"Calabria","Provincia":"Cosenza","Comune":"Acri","Indirizzo":"Piazza Sprovieri, Acri (CS)","Link":"https:\/\/www.facebook.com\/procivacri https:\/\/www.instagram.com\/gruppo_protezione_civile_acri "},"geometry":{"type":"Point","coordinates":[16.385897418927,39.490863949386]}},{"type":"Feature","properties":{"Associazione":"Gruppo Comunale Volontari di Protezione Civile del Comune di Aiello Calabro<br \/> ","Rischio":"Terremoto, Maremoto ","Quando":"14\/10\/2023 08:00-14:00<br \/>","Regione":"Calabria","Provincia":"Cosenza","Comune":"Aiello Calabro","Indirizzo":"Piazza Santa Maria, Aiello Calabro (CS)","Link":"https:\/\/www.facebook.com\/profile.php?id=100066338241323 "},"geometry":{"type":"Point","coordinates":[16.165493056239,39.116118149903]}},{"type":"Feature","properties":{"Associazioni":"Associazione Nazionale Autieri d'Italia<br \/> GRUPPO COMUNALE DI VOLONTARIATO DI PROTEZIONE CIVILE BELSITO<br \/> ","Rischio":"Terremoto, Maremoto ","Quando":"15\/10\/2023 09:00-17:00<br \/>","Regione":"Calabria","Provincia":"Cosenza","Comune":"Belsito","Indirizzo":"piazza municipio, Belsito (CS)","Link":"https:\/\/anaicleto.wordpress.com\/ https:\/\/www.facebook.com\/profile.php?id=100031869474552 "},"geometry":{"type":"Point","coordinates":[16.287440320254,39.173852999475]}},{"type":"Feature","properties":{"Associazione":"Belvedere 27Mhz<br \/> ","Rischio":"Terremoto, Maremoto ","Quando":"15\/10\/2023 09:00-19:00<br \/>","Regione":"Calabria","Provincia":"Cosenza","Comune":"Belvedere Marittimo","Indirizzo":"Via Lungomare , Belvedere Marittimo (CS)","Link":"https:\/\/www.facebook.com\/profile.php?id=100086743804665 "},"geometry":{"type":"Point","coordinates":[15.851097585837,39.620485397713]}},{"type":"Feature","properties":{"Associazione":"SILAMBIENTE BOCCHIGLIERO ODV<br \/> ","Rischio":"Terremoto, Maremoto ","Quando":"15\/10\/2023 10:00-18:00<br \/> ","Regione":"Calabria","Provincia":"Cosenza","Comune":"Bocchigliero","Indirizzo":"PIAZZA ARENTO, Bocchigliero (CS)","Link":"WWW.SILAMBIENTE.IT https:\/\/www.facebook.com\/silambientebocchiglieroODV "},"geometry":{"type":"Point","coordinates":[16.755134761333,39.41808025151]}},{"type":"Feature","properties":{"Associazione":"Gruppo comunale di protezione civile Comune di Castrolibero<br \/> ","Rischi":"Alluvione, Terremoto, Maremoto ","Quando":"14\/10\/2023 09:00-13:00<br \/>15\/10\/2023 09:00-13:30<br \/>","Regione":"Calabria","Provincia":"Cosenza","Comune":"Castrolibero","Indirizzo":"piazza Mario Dodaro, Castrolibero (CS)","Link":"https:\/\/www.facebook.com\/profile.php?id=100081440706584 "},"geometry":{"type":"Point","coordinates":[16.220307241139,39.308992783544]}},{"type":"Feature","properties":{"Associazione":"Croce Rossa Italiana Comitato di Castrovillari<br \/> ","Rischi":"Alluvione, Terremoto, Maremoto ","Quando":"15\/10\/2023 09:00-13:00<br \/>","Regione":"Calabria","Provincia":"Cosenza","Comune":"Castrovillari","Indirizzo":"Piazza Municipio, Castrovillari (CS)","Link":"www.facebook.com\/iononrichiocri2021 "},"geometry":{"type":"Point","coordinates":[16.19487366188,39.813388627681]}},{"type":"Feature","properties":{"Associazione":"Il gabbiano OdV<br \/> ","Rischio":"Terremoto, Maremoto ","Quando":"14\/10\/2023 10:30-17:30<br \/>","Regione":"Calabria","Provincia":"Cosenza","Comune":"Corigliano-Rossano","Indirizzo":"piazza steri, Corigliano-Rossano (CS)","Link":"https:\/\/www.facebook.com\/groups\/1066862187299324 "},"geometry":{"type":"Point","coordinates":[16.634415530468,39.574556669985]}},{"type":"Feature","properties":{"Associazione":"Croce Rossa Italiana Comitato di Corigliano-Rossano Rossano<br \/> ","Rischio":"Terremoto, Maremoto ","Quando":"15\/10\/2023 10:30-18:30<br \/>","Regione":"Calabria","Provincia":"Cosenza","Comune":"Corigliano-Rossano","Indirizzo":"Piazza Papa Giovanni Paolo II (Piazza Salotto), Corigliano-Rossano (CS)","Link":"https:\/\/www.facebook.com\/CRICoriglianoRossano "},"geometry":{"type":"Point","coordinates":[16.51329215678,39.627468136138]}},{"type":"Feature","properties":{"Associazione":"Coordinamento Nazionale Augustus<br \/> ","Rischio":"Terremoto, Maremoto ","Quando":"14\/10\/2023 16:00-20:00<br \/>","Regione":"Calabria","Provincia":"Cosenza","Comune":"Corigliano-Rossano","Indirizzo":"Via Vittorio Alfieri, 1, Corigliano-Rossano (CS)","Link":"https:\/\/www.facebook.com\/profile.php?id=100068528220646 https:\/\/www.facebook.com\/profile.php?id=100068528220646 https:\/\/www.facebook.com\/profile.php?id=100068528220646 https:\/\/www.facebook.com\/profile.php?id=100068528220646"},"geometry":{"type":"Point","coordinates":[16.513274504231,39.627590922923]}},{"type":"Feature","properties":{"Associazione":"NETWORK ESPERTI TECNICI PER LA PROTEZIONE CIVILE - S.O. CALABRIA<br \/> ","Rischio":"Terremoto, Maremoto ","Quando":"14\/10\/2023 09:30-19:30<br \/> 15\/10\/2023 09:30-19:30<br \/> ","Regione":"Calabria","Provincia":"Cosenza","Comune":"Cosenza","Indirizzo":"Piazza XI Settembre, Cosenza (CS)","Link":"www.netprocal.org https:\/\/www.facebook.com\/NETPROCAL "},"geometry":{"type":"Point","coordinates":[16.253873309687,39.297689274749]}},{"type":"Feature","properties":{"Associazioni":"Confraternita di Misericordia<br \/> SOCCORSO SENZA BARRIERE<br \/> ","Rischio":"Terremoto, Maremoto ","Quando":"14\/10\/0023 09:00-19:00<br \/>15\/10\/2023 09:30-19:00<br \/>","Regione":"Calabria","Provincia":"Cosenza","Comune":"Cosenza","Indirizzo":"Corso Mazzini-angolo via Miceli, Cosenza (CS)","Link":"https:\/\/www.facebook.com\/profile.php?id=100064129239286 "},"geometry":{"type":"Point","coordinates":[16.252998199323,39.300921407044]}},{"type":"Feature","properties":{"Associazione":"ProCiv ARCI Serre Cosentine<br \/> ","Rischi":"Alluvione, Terremoto, Maremoto ","Quando":"14\/10\/2023 10:00-13:00<br \/>14\/10\/2023 16:00-18:00<br \/>","Regione":"Calabria","Provincia":"Cosenza","Comune":"Domanico","Indirizzo":"Piazza Saverio Albo, Domanico (CS)","Link":"http:\/\/procivcarolei.it https:\/\/www.facebook.com\/procivarciCarolei\/?locale=it_IT https:\/\/www.instagram.com\/procivarci_carolei\/ "},"geometry":{"type":"Point","coordinates":[16.205829022137,39.218900705066]}},{"type":"Feature","properties":{"Associazione":"Croce Rossa Italiana Comitato di Castrovillari<br \/> ","Rischi":"Alluvione, Terremoto, Maremoto ","Quando":"14\/10\/2023 16:30-19:30<br \/>","Regione":"Calabria","Provincia":"Cosenza","Comune":"Laino Castello","Indirizzo":"Piazza Municipio, Laino Castello (CS)","Link":"www.facebook.com\/iononrischio2021cricastrovillari "},"geometry":{"type":"Point","coordinates":[15.977904311321,39.936388431183]}},{"type":"Feature","properties":{"Associazione":"Croce Rossa Italiana Comitato di Corigliano-Rossano Rossano<br \/> ","Rischio":"Terremoto, Maremoto ","Quando":"14\/10\/2023 11:00-18:00<br \/>","Regione":"Calabria","Provincia":"Cosenza","Comune":"Longobucco","Indirizzo":"Piazza G. Matteotti, Longobucco (CS)","Link":"https:\/\/www.facebook.com\/CRICoriglianoRossano "},"geometry":{"type":"Point","coordinates":[16.610649525011,39.448887587327]}},{"type":"Feature","properties":{"Associazione":"NUOVA TEBE ODV<br \/> ","Rischio":"Terremoto, Maremoto ","Quando":"14\/10\/2023 09:00-17:00<br \/>15\/10\/2023 09:00-13:00<br \/>","Regione":"Calabria","Provincia":"Cosenza","Comune":"Luzzi","Indirizzo":"Via San Francesco, Luzzi (CS)","Link":"https:\/\/www.facebook.com\/profile.php?id=100086036268000 https:\/\/instagram.com\/nuovatebeodv1?igshid=MzRIODBiNWFIZA== "},"geometry":{"type":"Point","coordinates":[16.291284460712,39.446111685356]}},{"type":"Feature","properties":{"Associazione":"NUOVA TEBE ODV<br \/> ","Rischio":"Terremoto, Maremoto ","Quando":"15\/10\/2023 09:00-13:00<br \/>","Regione":"Calabria","Provincia":"Cosenza","Comune":"Luzzi","Indirizzo":"C\/da Cavoni, Luzzi (CS)","Link":"https:\/\/instagram.com\/nuovatebeodv1?igshid=MzRlODBiNWFlZA== "},"geometry":{"type":"Point","coordinates":[16.254809321669,39.443684900582]}},{"type":"Feature","properties":{"Associazione":"Confraternita Misericordia Malvito<br \/> ","Rischio":"Terremoto, Maremoto ","Quando":"14\/10\/2023 10:00-17:00<br \/>15\/10\/2023 10:00-15:00<br \/>","Regione":"Calabria","Provincia":"Cosenza","Comune":"Malvito","Indirizzo":"PIAZZA MONUMENTO , MALVITO (CS), Malvito (CS)","Link":"https:\/\/misericordiamalvito.weebly.com\/ https:\/\/www.facebook.com\/misericordia.malvito.1 "},"geometry":{"type":"Point","coordinates":[16.052696346625,39.599125348875]}},{"type":"Feature","properties":{"Associazione":"prociv Agor\u00e0 mendicino odv<br \/> ","Rischio":"Terremoto, Maremoto ","Quando":"14\/10\/2023 09:00-18:00<br \/>","Regione":"Calabria","Provincia":"Cosenza","Comune":"Mendicino","Indirizzo":"piazza Municipio, Mendicino (CS)","Link":"https:\/\/m.facebook.com\/profile.php\/?id=100034559252432 "},"geometry":{"type":"Point","coordinates":[16.192934802543,39.259137177485]}},{"type":"Feature","properties":{"Associazione":"Gruppo comunale di Protezione Civile di Montalto Uffugo<br \/> ","Rischi":"Alluvione, Terremoto, Maremoto ","Quando":"14\/10\/2023 10:00-18:00<br \/>","Regione":"Calabria","Provincia":"Cosenza","Comune":"Montalto Uffugo","Indirizzo":"Piazza Pietro Guido, Montalto Uffugo (CS)","Link":"https:\/\/instagram.com\/prociv_montaltouffugo?igshid=MmU2YjMzNjRlOQ== "},"geometry":{"type":"Point","coordinates":[16.155907401402,39.403428996157]}},{"type":"Feature","properties":{"Associazione":"Croce Rossa Italiana Alto Ionio Cosentino<br \/> ","Rischio":"Alluvione ","Quando":"15\/10\/2023 09:30-13:30<br \/>","Regione":"Calabria","Provincia":"Cosenza","Comune":"San Demetrio Corone","Indirizzo":"Piazza Monumento, San Demetrio Corone (CS)","Link":"https:\/\/www.cricomitatoaltoioniocosentino.it https:\/\/www.facebook.com\/iononrischioaltoioniocosentino\/ "},"geometry":{"type":"Point","coordinates":[16.362452346241,39.56826766914]}},{"type":"Feature","properties":{"Associazione":"Confraternita di Misericordia di San Marco Argentano ODV<br \/> ","Rischio":"Terremoto, Maremoto ","Quando":"14\/10\/2023 09:00-12:00<br \/>15\/10\/2023 09:00-12:00<br \/>","Regione":"Calabria","Provincia":"Cosenza","Comune":"San Marco Argentano","Indirizzo":"Piazza Umberto I, San Marco Argentano (CS)","Link":"https:\/\/www.facebook.com\/misericordia.sanmarcoargentano "},"geometry":{"type":"Point","coordinates":[16.118730126244,39.556311033811]}},{"type":"Feature","properties":{"Associazione":"Gruppo Comunale di Volontariato di Protezione Civile Sant'Agata di Esaro<br \/> ","Rischi":"Alluvione, Terremoto, Maremoto ","Quando":"15\/10\/2023 09:00-14:00<br \/>","Regione":"Calabria","Provincia":"Cosenza","Comune":"Sant'Agata di Esaro","Indirizzo":"piazza Vittorio Emanuele II, Sant'Agata di Esaro (CS)","Link":"https:\/\/www.facebook.com\/iononrischiosade "},"geometry":{"type":"Point","coordinates":[16.018327428014,39.803058333523]}},{"type":"Feature","properties":{"Associazione":"Gruppo Comunale Volontari di Protezione Civile del Comune di Saracena<br \/> ","Rischi":"Alluvione, Terremoto, Maremoto ","Quando":"14\/10\/2023 09:00-18:00<br \/> ","Regione":"Calabria","Provincia":"Cosenza","Comune":"Saracena","Indirizzo":"Piazza XX Settembre, Saracena (CS)","Link":"https:\/\/www.comune.saracena.cs.it\/it https:\/\/www.facebook.com\/p\/Comune-di-Saracena-100057455920808\/?locale=it_IT "},"geometry":{"type":"Point","coordinates":[16.155965484306,39.776110640565]}},{"type":"Feature","properties":{"Associazione":"sila club 4x4<br \/> ","Rischio":"Terremoto, Maremoto ","Quando":"15\/10\/2023 10:30-16:00<br \/>","Regione":"Calabria","Provincia":"Cosenza","Comune":"Spezzano della Sila","Indirizzo":"Piazza delle Fontane, Spezzano della Sila (CS)","Link":"https:\/\/www.facebook.com\/Silaclub4x4 https:\/\/www.instagram.com\/inr_camigliatello_silano "},"geometry":{"type":"Point","coordinates":[16.339584847496,39.300004451421]}},{"type":"Feature","properties":{"Associazione":"P.A. AVAS PRESILA \"San Francesco da Paola\"<br \/> ","Rischio":"Terremoto, Maremoto ","Quando":"14\/10\/2023 09:00-13:00<br \/>","Regione":"Calabria","Provincia":"Cosenza","Comune":"Spezzano della Sila","Indirizzo":"piazza Misasi, Spezzano della Sila (CS)","Link":"avas.org www.facebook.it avaspresila "},"geometry":{"type":"Point","coordinates":[16.341654873728,39.300510896246]}},{"type":"Feature","properties":{"Associazione":"misericordia di trebisacce<br \/> ","Rischio":"Terremoto, Maremoto ","Quando":"15\/10\/2023 10:00-13:00<br \/>15\/10\/2023 16:00-20:00<br \/>","Regione":"Calabria","Provincia":"Cosenza","Comune":"Trebisacce","Indirizzo":"piazza alfredo lutri, Trebisacce (CS)","Link":"www.misericordiatrebisacce.org "},"geometry":{"type":"Point","coordinates":[16.532044708729,39.867590905516]}},{"type":"Feature","properties":{"Associazione":"LE AQUILE CITTA' DI VILLAPIANA OdV<br \/> ","Rischio":"Alluvione ","Quando":"15\/10\/2023 08:00-13:00<br \/>","Regione":"Calabria","Provincia":"Cosenza","Comune":"Villapiana","Indirizzo":"VIA DE CADUTI  VILLAPIANA LIDO, Villapiana (CS)","Link":"https:\/\/www.facebook.com\/profile.php?id=100086135875553 "},"geometry":{"type":"Point","coordinates":[16.490003347776,39.810703977718]}},{"type":"Feature","properties":{"Associazione":"Catanzaro<br \/> ","Rischio":"Terremoto, Maremoto ","Quando":"14\/10\/2023 08:00-16:00<br \/>15\/10\/2023 08:00-16:00<br \/>","Regione":"Calabria","Provincia":"Catanzaro","Comune":"Borgia","Indirizzo":"Piazza Ortona, Borgia (CZ)","Link":"www.angeliblu.it  https:\/\/www.facebook.com\/profile.php?id=100089855275552 \/\/\/ \/\/\/"},"geometry":{"type":"Point","coordinates":[16.510863777779,38.82599958781]}},{"type":"Feature","properties":{"Associazione":"Prociv G.O.S. Caraffa<br \/> ","Rischio":"Terremoto, Maremoto ","Quando":"14\/10\/2023 09:00-18:00<br \/> 15\/10\/2023 09:00-18:00<br \/> ","Regione":"Calabria","Provincia":"Catanzaro","Comune":"Caraffa di Catanzaro","Indirizzo":"Corso Colombo, Caraffa di Catanzaro (CZ)","Link":"PROCIV CARAFFA "},"geometry":{"type":"Point","coordinates":[16.486651219495,38.879342127677]}},{"type":"Feature","properties":{"Associazione":"Gruppo Emergenza Rupe Ventosa (Geruv) Lions - FIR-CB<br \/> ","Rischio":"Terremoto, Maremoto ","Quando":"14\/10\/2023 09:00-19:00<br \/>","Regione":"Calabria","Provincia":"Catanzaro","Comune":"Catanzaro","Indirizzo":"Via Vinicio cortese, 1, Catanzaro (CZ)","Link":"https:\/\/www.geruv.org https:\/\/www.facebook.com\/iononrischiocatanzaro https:\/\/instagram.com\/iononrischio_catanzaro "},"geometry":{"type":"Point","coordinates":[16.580538153539,38.919517256605]}},{"type":"Feature","properties":{"Associazione":"Guardie Ambientali d'Italia - ODV<br \/> ","Rischio":"Alluvione ","Quando":"15\/10\/2023 09:00-18:00<br \/>","Regione":"Calabria","Provincia":"Catanzaro","Comune":"Chiaravalle Centrale","Indirizzo":"piazzale Liceo Scientifico, Chiaravalle Centrale (CZ)","Link":"https:\/\/www.facebook.com\/profile.php?id=61552002208660 "},"geometry":{"type":"Point","coordinates":[16.410020303951,38.681466011272]}},{"type":"Feature","properties":{"Associazione":"PROCIV-GIRIFALCO<br \/> ","Rischio":"Terremoto, Maremoto ","Quando":"15\/10\/2023 09:00-13:00<br \/>15\/10\/2023 14:00-16:30<br \/>","Regione":"Calabria","Provincia":"Catanzaro","Comune":"Girifalco","Indirizzo":"Piazza Umberto I, Girifalco (CZ)","Link":"https:\/\/www.facebook.com\/inrGirifalco https:\/\/www.facebook.com\/inrGirifalco "},"geometry":{"type":"Point","coordinates":[16.424444132579,38.822008001499]}},{"type":"Feature","properties":{"Associazione":"Corpo Italiano di Soccorso dell'Ordine di Malta<br \/> ","Rischio":"Terremoto, Maremoto ","Quando":"15\/10\/2023 09:00-13:00<br \/>15\/10\/2023 16:00-19:00<br \/>","Regione":"Calabria","Provincia":"Catanzaro","Comune":"Guardavalle","Indirizzo":"Piazza del Carmine Guardavalle Centro, Guardavalle (CZ)","Link":"https:\/\/www.facebook.com\/iononrischiocatanzaro "},"geometry":{"type":"Point","coordinates":[16.578786795453,38.482532985124]}},{"type":"Feature","properties":{"Associazione":"Corpo Italiano di Soccorso dell'Ordine di Malta<br \/> ","Rischio":"Terremoto, Maremoto ","Quando":"15\/10\/2023 09:00-13:00<br \/>15\/10\/2023 16:00-19:00<br \/>","Regione":"Calabria","Provincia":"Catanzaro","Comune":"Guardavalle","Indirizzo":"Piazza del Carmine Guardavalle Centro , Guardavalle (CZ)","Link":"https:\/\/www.facebook.com\/iononrischioguardavalle "},"geometry":{"type":"Point","coordinates":[16.50596738812,38.504344649089]}},{"type":"Feature","properties":{"Associazione":"ASSOCIAZIONE Rocca Nucifera ODV <br \/> ","Rischio":"Terremoto, Maremoto ","Quando":"14\/10\/2023 10:30-18:00<br \/>","Regione":"Calabria","Provincia":"Catanzaro","Comune":"Lamezia Terme","Indirizzo":"Piazza Conte Michelangelo, Lamezia Terme (CZ)","Link":"https:\/\/m.facebook.com\/profile.php\/?id=100064620524994&name=xhp_nt__fb__action__open_user "},"geometry":{"type":"Point","coordinates":[16.278800686606,38.869494352838]}},{"type":"Feature","properties":{"Associazione":"Gruppo Comunale Volontari Protezione Civile di Marcellinara<br \/> ","Rischi":"Alluvione, Terremoto, Maremoto ","Quando":"14\/10\/2023 09:00-12:30<br \/>","Regione":"Calabria","Provincia":"Catanzaro","Comune":"Marcellinara","Indirizzo":"Piazza Francesco Scerbo, Marcellinara (CZ)","Link":"https:\/\/www.facebook.com\/iononrischiomarcellinara "},"geometry":{"type":"Point","coordinates":[16.49315211629,38.927385782317]}},{"type":"Feature","properties":{"Associazioni":"Vab Calabria<br \/> CZ<br \/> ","Rischio":"Alluvione ","Quando":"14\/10\/2023 09:00-18:00<br \/>15\/10\/2023 09:00-18:00<br \/>","Regione":"Calabria","Provincia":"Catanzaro","Comune":"Montepaone","Indirizzo":"Piazza San Francesco di paola, Montepaone (CZ)","Link":"https:\/\/iononrischio.protezionecivile.it\/it\/ https:\/\/www.facebook.com\/profile.php?id=100094183879561 "},"geometry":{"type":"Point","coordinates":[16.540898638577,38.728450287348]}},{"type":"Feature","properties":{"Associazione":"ANGELI DEL REVENTINO<br \/> ","Rischi":"Alluvione, Terremoto, Maremoto ","Quando":"15\/10\/2023 08:30-13:00<br \/>","Regione":"Calabria","Provincia":"Catanzaro","Comune":"Platania","Indirizzo":"PIAZZA VITTORIO VENETO, Platania (CZ)","Link":"https:\/\/www.facebook.com\/protezionecivile.civile.77 "},"geometry":{"type":"Point","coordinates":[16.319594979286,39.00402375781]}},{"type":"Feature","properties":{"Associazione":"ASSOCIAZIONE Rocca Nucifera ODV <br \/> ","Rischio":"Terremoto, Maremoto ","Quando":"15\/10\/2023 10:15-18:00<br \/>","Regione":"Calabria","Provincia":"Catanzaro","Comune":"San Pietro a Maida","Indirizzo":"via Pietro Antonio Sgr\u00f2, San Pietro a Maida (CZ)","Link":"https:\/\/m.facebook.com\/profile.php\/?id=100064620524994&name=xhp_nt__fb__action__open_user "},"geometry":{"type":"Point","coordinates":[16.343961790468,38.846840963947]}},{"type":"Feature","properties":{"Associazione":"Misericordia di Cerenzia ODV<br \/> ","Rischi":"Alluvione, Terremoto, Maremoto ","Quando":"14\/10\/2023 10:00-18:00<br \/>","Regione":"Calabria","Provincia":"Crotone","Comune":"Cerenzia","Indirizzo":"piazza Fazio, Cerenzia (KR)","Link":"https:\/\/www.facebook.com\/groups\/5248454548541130 "},"geometry":{"type":"Point","coordinates":[16.784541864728,39.244908791063]}},{"type":"Feature","properties":{"Associazione":"Prociv Cir\u00f2<br \/> ","Rischi":"Alluvione, Terremoto, Maremoto ","Quando":"15\/10\/2023 09:00-18:00<br \/>","Regione":"Calabria","Provincia":"Crotone","Comune":"Cir\u00f2","Indirizzo":"Piazza Stefano Pugliese, Cir\u00f2 (KR)","Link":"https:\/\/www.facebook.com\/iononrischio\/ "},"geometry":{"type":"Point","coordinates":[16.957397460938,39.373375033435]}},{"type":"Feature","properties":{"Associazioni":"Confraternita di Misericordia di Cir\u00f2 Marina OdV<br \/> Prociv Krimisa citt\u00e0 di Cir\u00f2 Marina<br \/> ","Rischi":"Alluvione, Terremoto, Maremoto ","Quando":"15\/10\/2023 10:00-19:00<br \/>","Regione":"Calabria","Provincia":"Crotone","Comune":"Cir\u00f2 Marina","Indirizzo":"Via Lungomare Stefano Pugliese, Cir\u00f2 Marina (KR)","Link":"https:\/\/iononrischio.protezionecivile.it\/it\/ https:\/\/www.facebook.com\/profile.php?id=100085344320810 "},"geometry":{"type":"Point","coordinates":[17.133332727028,39.366442714987]}},{"type":"Feature","properties":{"Associazione":"Misericordia Papanice<br \/> ","Rischio":"Alluvione ","Quando":"14\/10\/2023 10:00-18:00<br \/>","Regione":"Calabria","Provincia":"Crotone","Comune":"Crotone","Indirizzo":"Piazza Europa , Crotone (KR)","Link":"https:\/\/www.facebook.com\/iononrischiopapanice "},"geometry":{"type":"Point","coordinates":[17.029221702396,39.07203217227]}},{"type":"Feature","properties":{"Associazione":"Prociv Protezione Civile Cutro<br \/> ","Rischio":"Alluvione ","Quando":"15\/10\/2023 09:30-19:30<br \/>","Regione":"Calabria","Provincia":"Crotone","Comune":"Cutro","Indirizzo":"corso Umberto, Cutro (KR)","Link":"https:\/\/m.facebook.com\/profile.php\/?id=100064837565395&name=xhp_nt__fb__action__open_user "},"geometry":{"type":"Point","coordinates":[16.980580493383,39.032914927643]}},{"type":"Feature","properties":{"Associazione":"associazione piccola Italia<br \/> ","Rischio":"Terremoto, Maremoto ","Quando":"14\/10\/2023 15:00-18:00<br \/>","Regione":"Calabria","Provincia":"Crotone","Comune":"Savelli","Indirizzo":"via roma , Savelli (KR)","Link":"https:\/\/www.facebook.com\/piccolaitaliasavelli\/ https:\/\/instagram.com\/piccolaitalia.savelli?igshid=MmU2YjMzNjRl0Q== "},"geometry":{"type":"Point","coordinates":[16.779614653624,39.312592228983]}},{"type":"Feature","properties":{"Associazione":"Croce Rossa Italiana - Comitato di Bagnara Calabra OdV<br \/> ","Rischi":"Alluvione, Terremoto, Maremoto ","Quando":"14\/10\/2023 09:00-20:30<br \/>15\/10\/2023 09:00-20:00<br \/>","Regione":"Calabria","Provincia":"Reggio Calabria","Comune":"Bagnara Calabra","Indirizzo":"Piazza Matteotti, Bagnara Calabra (RC)","Link":"https:\/\/www.bagnaracalabra.cri.it https:\/\/www.facebook.com\/InrCriBagnara\/ https:\/\/twitter.com\/inrbagnara https:\/\/twitter.com\/inrbagnara"},"geometry":{"type":"Point","coordinates":[15.80405779703,38.288159765347]}},{"type":"Feature","properties":{"Associazioni":"PROCIV DELIA ODV ETS<br \/> L.A.Do.S. Bova Marina OdV<br \/> ","Rischio":"Alluvione ","Quando":"14\/10\/2023 09:00-18:30<br \/>15\/10\/2023 10:00-18:30<br \/>","Regione":"Calabria","Provincia":"Reggio Calabria","Comune":"Bova Marina","Indirizzo":"Piazza Stazione, Bova Marina (RC)","Link":"https:\/\/www.facebook.com\/profile.php?id=100085678283448 https:\/\/www.facebook.com\/profile.php?id=100085678283448 "},"geometry":{"type":"Point","coordinates":[15.92438050168,37.930377886542]}},{"type":"Feature","properties":{"Associazioni":"L.A.Do.S. Bova Marina OdV<br \/> PROCIV DELIA ODV ETS<br \/> ","Rischio":"Terremoto, Maremoto ","Quando":"14\/10\/2023 10:00-12:00<br \/>14\/10\/2023 15:30-18:30<br \/>15\/10\/2023 09:30-12:30<br \/>15\/10\/2023 15:30-18:30<br \/>","Regione":"Calabria","Provincia":"Reggio Calabria","Comune":"Bova Marina","Indirizzo":"Piazza Stazione, Bova Marina (RC)","Link":"https:\/\/www.facebook.com\/profile.php?id=61551013391991&mibextid=ZbWKwL "},"geometry":{"type":"Point","coordinates":[15.92390463635,37.930408377844]}},{"type":"Feature","properties":{"Associazione":"Associazione volontariato PROCIV STELLA MARIS ODV ETS<br \/> ","Rischio":"Terremoto, Maremoto ","Quando":"15\/10\/2023 10:00-19:00<br \/>","Regione":"Calabria","Provincia":"Reggio Calabria","Comune":"Bova Marina","Indirizzo":"Piazza stazione , Bova Marina (RC)","Link":"maris protezione civile  https:\/\/www.facebook.com\/p\/Stella-Maris-Protezione-Civile-Bova-Marina-100067108153261\/?locale=it_IT "},"geometry":{"type":"Point","coordinates":[15.92402279377,37.930087650094]}},{"type":"Feature","properties":{"Associazione":"GRUPPO COMUNALE CASIGNANA<br \/> ","Rischi":"Alluvione, Terremoto, Maremoto ","Quando":"14\/10\/2023 10:00-18:00<br \/> 15\/10\/2023 10:00-18:00<br \/> ","Regione":"Calabria","Provincia":"Reggio Calabria","Comune":"Casignana","Indirizzo":"PIAZZA MUNICIPIO, Casignana (RC)","Link":"https:\/\/www.comune.casignana.rc.it\/it https:\/\/facebook.com\/casignana.rc  "},"geometry":{"type":"Point","coordinates":[16.089113180245,38.101082751892]}},{"type":"Feature","properties":{"Associazione":"CIPC CAULONIA<br \/> ","Rischi":"Alluvione, Terremoto, Maremoto ","Quando":"14\/10\/2023 10:00-17:30<br \/>","Regione":"Calabria","Provincia":"Reggio Calabria","Comune":"Caulonia","Indirizzo":"PIAZZA BOTTARI , Caulonia (RC)","Link":"http:\/\/www.facebook.com\/iononrischio\/ "},"geometry":{"type":"Point","coordinates":[16.4668509173,38.34378449261]}},{"type":"Feature","properties":{"Associazione":"Salvamento Locride Mare<br \/> ","Rischio":"Alluvione ","Quando":"15\/10\/2023 08:00-17:00<br \/>","Regione":"Calabria","Provincia":"Reggio Calabria","Comune":"Locri","Indirizzo":"piazza dei martiri, Locri (RC)","Link":"https:\/\/www.facebook.com\/profile.php?id=100056017150133&locale=it_IT "},"geometry":{"type":"Point","coordinates":[16.265022421525,38.234719080524]}},{"type":"Feature","properties":{"Associazione":"O.V.P.C.M Melito di Porto Salvo<br \/> ","Rischi":"Alluvione, Terremoto, Maremoto ","Quando":"14\/10\/2023 09:00-18:30<br \/>","Regione":"Calabria","Provincia":"Reggio Calabria","Comune":"Melito di Porto Salvo","Indirizzo":"Corso Garibaldi, Melito di Porto Salvo (RC)","Link":"PROTEZIONE CIVILE MELITO DI PORTO SALVO "},"geometry":{"type":"Point","coordinates":[15.781105035255,37.918493915832]}},{"type":"Feature","properties":{"Associazione":"MISERICORDIA DI MELITO PORTO SALVO<br \/> ","Rischi":"Alluvione, Terremoto, Maremoto ","Quando":"14\/10\/2023 09:00-18:30<br \/>15\/10\/2023 09:00-18:30<br \/>","Regione":"Calabria","Provincia":"Reggio Calabria","Comune":"Melito di Porto Salvo","Indirizzo":"Via Nazionale 58, Melito di Porto Salvo (RC)","Link":"https:\/\/www.misericordiamps.it\/ https:\/\/www.facebook.com\/misericordia.melitoportosalvo\/?locale=it_IT https:\/\/www.instagram.com\/misericordia_mps\/ "},"geometry":{"type":"Point","coordinates":[15.782967868895,37.920821034435]}},{"type":"Feature","properties":{"Associazione":"Ass. Il Castello<br \/> ","Rischio":"Terremoto, Maremoto ","Quando":"14\/10\/2023 16:00-20:30<br \/>","Regione":"Calabria","Provincia":"Reggio Calabria","Comune":"Monasterace","Indirizzo":"PIAZZA CADUTI SENZA CROCE, Monasterace (RC)","Link":"https:\/\/www.facebook.com\/ionorischio2023monasterace "},"geometry":{"type":"Point","coordinates":[16.575132822816,38.437273757753]}},{"type":"Feature","properties":{"Associazione":"Croce Rossa Italiana<br \/> ","Rischio":"Terremoto, Maremoto ","Quando":"15\/10\/2023 10:00-20:00<br \/>","Regione":"Calabria","Provincia":"Reggio Calabria","Comune":"Reggio di Calabria","Indirizzo":"Corso Giuseppe Garibaldi, 461, Reggio di Calabria (RC)","Link":"https:\/\/www.facebook.com\/iononrischioCRIRC https:\/\/instagram.com\/io_non_rischio_cri_rc "},"geometry":{"type":"Point","coordinates":[15.641191005598,38.105745753903]}},{"type":"Feature","properties":{"Associazione":"ISTITUTO PER LA FAMIGLIA<br \/> ","Rischio":"Terremoto, Maremoto ","Quando":"15\/10\/2023 09:00-18:00<br \/>","Regione":"Calabria","Provincia":"Reggio Calabria","Comune":"Reggio di Calabria","Indirizzo":"Piazza Duomo, Reggio di Calabria (RC)","Link":"https:\/\/www.ipfonlus.it https:\/\/www.facebook.com\/profile.php?id=100086339577911 "},"geometry":{"type":"Point","coordinates":[15.641509979485,38.105837958857]}},{"type":"Feature","properties":{"Associazione":"ETS Associazione Nazionale Protezione Civile Don Orione<br \/> ","Rischio":"Terremoto, Maremoto ","Quando":"15\/10\/2023 09:30-19:00<br \/>","Regione":"Calabria","Provincia":"Reggio Calabria","Comune":"Reggio di Calabria","Indirizzo":"Via vito Inferiore -  Piazza San Nicola , Reggio di Calabria (RC)","Link":"https:\/\/www.facebook.com\/profile.php?id=61551821044471&mibextid=ZbWKwL "},"geometry":{"type":"Point","coordinates":[15.670089363919,38.12509004621]}},{"type":"Feature","properties":{"Associazione":"ASSOCIAZIONE VOLONTARI DI PROTEZIONE CIVILE SAN GIORGIO<br \/> ","Rischi":"Alluvione, Terremoto, Maremoto ","Quando":"15\/10\/2023 10:00-18:00<br \/>","Regione":"Calabria","Provincia":"Reggio Calabria","Comune":"Reggio di Calabria","Indirizzo":"Piazza Biagio Camagna, Reggio di Calabria (RC)","Link":"https:\/\/www.facebook.com\/iononrischio "},"geometry":{"type":"Point","coordinates":[15.642838377722,38.107130464843]}},{"type":"Feature","properties":{"Associazione":"PROCIV-ARCI RIZZICONI<br \/> ","Rischi":"Alluvione, Terremoto, Maremoto ","Quando":"15\/10\/2023 09:30-12:30<br \/>","Regione":"Calabria","Provincia":"Reggio Calabria","Comune":"Rizziconi","Indirizzo":"piazza Marconi, Rizziconi (RC)","Link":"https:\/\/www.facebook.com\/INRrizziconi "},"geometry":{"type":"Point","coordinates":[15.959102899144,38.411927707285]}},{"type":"Feature","properties":{"Associazioni":"San Giorgio Morgeto<br \/> P.A. Croce Viola<br \/> ","Rischio":"Terremoto, Maremoto ","Quando":"14\/10\/2023 10:00-18:00<br \/>","Regione":"Calabria","Provincia":"Reggio Calabria","Comune":"San Giorgio Morgeto","Indirizzo":"Largo Ammendolea, San Giorgio Morgeto (RC)","Link":"https:\/\/iononrischio.protezionecivile.it\/ "},"geometry":{"type":"Point","coordinates":[16.106661558042,38.386152956761]}},{"type":"Feature","properties":{"Associazione":"gruppo comunale volontari di protezione civile Santo Stefano in Aspromonte<br \/> ","Rischio":"Terremoto, Maremoto ","Quando":"14\/10\/2026 08:50-17:30<br \/>","Regione":"Calabria","Provincia":"Reggio Calabria","Comune":"Santo Stefano in Aspromonte","Indirizzo":"via domenico morabito, Santo Stefano in Aspromonte (RC)","Link":"https:\/\/www.facebook.com\/profile.php?id=100064691712791 "},"geometry":{"type":"Point","coordinates":[15.790017462491,38.167394659888]}},{"type":"Feature","properties":{"Associazione":"gruppo comunale volontari di protezione civile Santo Stefano in Aspromonte<br \/> ","Rischio":"Terremoto, Maremoto ","Quando":"14\/10\/2023 09:00-17:30<br \/>","Regione":"Calabria","Provincia":"Reggio Calabria","Comune":"Santo Stefano in Aspromonte","Indirizzo":"piazza domenico morabito , Santo Stefano in Aspromonte (RC)","Link":"https:\/\/www.facebook.com\/profile.php?id=100064691712791 https:\/\/www.facebook.com\/profile.php?id=100064691712791 https:\/\/www.facebook.com\/profile.php?id=100064691712791 https:\/\/www.facebook.com\/profile.php?id=100064691712791"},"geometry":{"type":"Point","coordinates":[15.789979586429,38.167449488044]}},{"type":"Feature","properties":{"Associazione":"asproverde<br \/> ","Rischio":"Terremoto, Maremoto ","Quando":"14\/10\/2023 08:30-18:00<br \/>","Regione":"Calabria","Provincia":"Reggio Calabria","Comune":"Sinopoli","Indirizzo":"piazza Capua, Sinopoli (RC)","Link":"https:\/\/www.facebook.com\/asproverdeonlus\/ "},"geometry":{"type":"Point","coordinates":[15.877263296322,38.26394629716]}},{"type":"Feature","properties":{"Associazione":"CRI Comitato di Taurianova<br \/> ","Rischi":"Alluvione, Terremoto, Maremoto ","Quando":"14\/10\/2023 10:00-12:30<br \/>15\/10\/2023 10:00-12:30<br \/>","Regione":"Calabria","Provincia":"Reggio Calabria","Comune":"Taurianova","Indirizzo":"Piazza Italia, Taurianova (RC)","Link":"https:\/\/www.facebook.com\/iononrischio\/ "},"geometry":{"type":"Point","coordinates":[16.014303042705,38.35334394115]}},{"type":"Feature","properties":{"Associazione":"Gruppo Comunale Volontari di Protezione Civile Villa San Giovanni<br \/> ","Rischi":"Alluvione, Terremoto, Maremoto ","Quando":"14\/10\/2023 09:30-19:00<br \/>15\/10\/2023 09:30-19:00<br \/>","Regione":"Calabria","Provincia":"Reggio Calabria","Comune":"Villa San Giovanni","Indirizzo":"Piazza Valsesia , Villa San Giovanni (RC)","Link":"https:\/\/www.instagram.com\/io_non_rischio_protciv.villasg\/ "},"geometry":{"type":"Point","coordinates":[15.636370506302,38.219133659625]}},{"type":"Feature","properties":{"Associazione":"O.D.V. PROMOARENA<br \/> ","Rischi":"Alluvione, Terremoto, Maremoto ","Quando":"14\/10\/2023 08:30-13:00<br \/>15\/10\/2023 15:30-18:00<br \/>","Regione":"Calabria","Provincia":"Vibo Valentia","Comune":"Arena","Indirizzo":"Piazza Generale Salvatore Pagano 2, Arena (VV)","Link":"http:\/\/www.promoarena.altervista.org\/new\/?s=10&p=23 https:\/\/www.facebook.com\/profile.php?id=61551824293681 https:\/\/www.instagram.com\/promoarena\/ https:\/\/twitter.com\/PromoarenaOdv"},"geometry":{"type":"Point","coordinates":[16.21117912653,38.56286968294]}},{"type":"Feature","properties":{"Associazioni":"GRUPPO DASA' - ODV PROMOARENA<br \/> O.D.V. PROMOARENA<br \/> ","Rischi":"Alluvione, Stromboli, Vulcano, Terremoto, Maremoto ","Quando":"15\/10\/2023 09:00-13:00<br \/>","Regione":"Calabria","Provincia":"Vibo Valentia","Comune":"Das\u00e0","Indirizzo":"SP4, Das\u00e0 (VV)","Link":"http:\/\/www.promoarena.altervista.org\/new\/?s=10&p=23 https:\/\/www.facebook.com\/profile.php?id=100086511453973 https:\/\/www.instagram.com\/promoarena\/ https:\/\/twitter.com\/PromoarenaOdv"},"geometry":{"type":"Point","coordinates":[16.193816712492,38.564396949148]}},{"type":"Feature","properties":{"Associazioni":"Associazione Promoarena Onlus - Gruppo Dinami<br \/> O.D.V. PROMOARENA<br \/> ","Rischi":"Alluvione, Stromboli, Vulcano, Terremoto, Maremoto ","Quando":"15\/10\/2023 08:30-12:30<br \/>","Regione":"Calabria","Provincia":"Vibo Valentia","Comune":"Dinami","Indirizzo":"Via Del Re, Dinami (VV)","Link":"http:\/\/www.promoarena.altervista.org\/new\/?s=10&p=23 https:\/\/www.facebook.com\/profile.php?id=100086471496079 https:\/\/www.instagram.com\/promoarena\/ https:\/\/twitter.com\/PromoarenaOdv"},"geometry":{"type":"Point","coordinates":[16.148048507684,38.527992219274]}},{"type":"Feature","properties":{"Associazione":"Coordinamento Nazionale Augustus<br \/> ","Rischio":"Terremoto, Maremoto ","Quando":"14\/10\/2023 10:30-16:30<br \/>15\/10\/2023 10:30-16:30<br \/>","Regione":"Calabria","Provincia":"Vibo Valentia","Comune":"Filadelfia","Indirizzo":"Piazza Giov. Andrea Serrao, Filadelfia (VV)","Link":"https:\/\/www.facebook.com\/profile.php?id=100090975217588 https:\/\/www.instagram.com\/augustus_fila\/ "},"geometry":{"type":"Point","coordinates":[16.291281580925,38.783638222112]}},{"type":"Feature","properties":{"Associazione":"Coordinamento Nazionale Augustus<br \/> ","Rischi":"Alluvione, Terremoto, Maremoto ","Quando":"14\/10\/2023 09:00-20:00<br \/>","Regione":"Calabria","Provincia":"Vibo Valentia","Comune":"Ionadi","Indirizzo":"Piazza Italia, Ionadi (VV)","Link":"https:\/\/www.facebook.com\/anpanagepa.vibovalentia.protezionecivile https:\/\/www.facebook.com\/anpanagepa.vibovalentia.protezionecivile https:\/\/www.facebook.com\/anpanagepa.vibovalentia.protezionecivile https:\/\/www.facebook.com\/anpanagepa.vibovalentia.protezionecivile"},"geometry":{"type":"Point","coordinates":[16.055734648034,38.627830967457]}},{"type":"Feature","properties":{"Associazioni":"ODV PROMOARENA - GRUPPO MONTEROSSO CALABRO<br \/> O.D.V. PROMOARENA<br \/> ","Rischi":"Alluvione, Stromboli, Vulcano, Terremoto, Maremoto ","Quando":"14\/10\/2023 15:00-18:30<br \/>","Regione":"Calabria","Provincia":"Vibo Valentia","Comune":"Monterosso Calabro","Indirizzo":"SP 46 - VIA G. MARCOMI 1, Monterosso Calabro (VV)","Link":"http:\/\/www.promoarena.altervista.org\/new\/?s=10&p=23 https:\/\/www.facebook.com\/profile.php?id=100086312353040 https:\/\/www.instagram.com\/promoarena\/ https:\/\/twitter.com\/PromoarenaOdv"},"geometry":{"type":"Point","coordinates":[16.291021080695,38.716175062557]}},{"type":"Feature","properties":{"Associazione":"C.I.P.C. Centro Italiano Protezione Civile - Comitato prov.le Vibo Valentia<br \/> ","Rischio":"Terremoto, Maremoto ","Quando":"15\/10\/2023 09:00-13:00<br \/>","Regione":"Calabria","Provincia":"Vibo Valentia","Comune":"Pizzo","Indirizzo":"Piazza della Repubblica, Pizzo (VV)","Link":"https:\/\/www.facebook.com\/protezionecivile.pizzo https:\/\/www.instagram.com\/protezione_civile_pizzo\/ "},"geometry":{"type":"Point","coordinates":[16.160897570656,38.735578998887]}},{"type":"Feature","properties":{"Associazione":"Coordinamento Nazionale Augustus<br \/> ","Rischi":"Alluvione, Terremoto, Maremoto ","Quando":"14\/10\/2023 09:00-20:00<br \/>","Regione":"Calabria","Provincia":"Vibo Valentia","Comune":"Pizzoni","Indirizzo":"Via Oliveto, Pizzoni (VV)","Link":"https:\/\/www.facebook.com\/anpanagepa.vibovalentia.protezionecivile https:\/\/www.facebook.com\/anpanagepa.vibovalentia.protezionecivile https:\/\/www.facebook.com\/anpanagepa.vibovalentia.protezionecivile https:\/\/www.facebook.com\/anpanagepa.vibovalentia.protezionecivile"},"geometry":{"type":"Point","coordinates":[16.249634551566,38.623173226626]}},{"type":"Feature","properties":{"Associazioni":"GRUPPO POLIA - ODV PROMOARENA <br \/> O.D.V. PROMOARENA<br \/> ","Rischi":"Alluvione, Terremoto, Maremoto ","Quando":"14\/10\/2023 08:30-13:00<br \/>","Regione":"Calabria","Provincia":"Vibo Valentia","Comune":"Polia","Indirizzo":"Piazza Dott. P. Pizzonia, frazione Cellia, Polia (VV)","Link":"http:\/\/www.promoarena.altervista.org\/new\/?s=10&p=23 https:\/\/www.facebook.com\/profile.php?id=100086041495203 https:\/\/www.instagram.com\/promoarena\/ https:\/\/twitter.com\/PromoarenaOdv"},"geometry":{"type":"Point","coordinates":[16.312054777732,38.745683782343]}},{"type":"Feature","properties":{"Associazioni":"ODV PROMOARENA - GRUPPO SAN NICOLA DA CRISSA<br \/> O.D.V. PROMOARENA<br \/> ","Rischi":"Alluvione, Terremoto, Maremoto ","Quando":"15\/10\/2023 09:00-12:30<br \/>","Regione":"Calabria","Provincia":"Vibo Valentia","Comune":"San Nicola da Crissa","Indirizzo":"Piazza G. Marconi, San Nicola da Crissa (VV)","Link":"http:\/\/www.promoarena.altervista.org\/new\/?s=10&p=23 https:\/\/www.facebook.com\/profile.php?id=100086312353040 https:\/\/www.instagram.com\/promoarena\/ https:\/\/twitter.com\/PromoarenaOdv"},"geometry":{"type":"Point","coordinates":[16.284728963475,38.663534232248]}},{"type":"Feature","properties":{"Associazione":"Augustus-Sakura Sant'Onofrio<br \/> ","Rischi":"Alluvione, Terremoto, Maremoto ","Quando":"14\/10\/2023 09:00-20:00<br \/>","Regione":"Calabria","Provincia":"Vibo Valentia","Comune":"Sant'Onofrio","Indirizzo":"Piazza Umberto I, Sant'Onofrio (VV)","Link":"https:\/\/www.facebook.com\/AugustusSakura "},"geometry":{"type":"Point","coordinates":[16.143741408353,38.695166502885]}},{"type":"Feature","properties":{"Associazione":"Associazione Gruppo Protezione Civile San Domenico Soriano Calabro<br \/> ","Rischio":"Terremoto, Maremoto ","Quando":"15\/10\/2023 09:30-13:00<br \/>","Regione":"Calabria","Provincia":"Vibo Valentia","Comune":"Soriano Calabro","Indirizzo":"Via Roma, Soriano Calabro (VV)","Link":"https:\/\/www.facebook.com\/profile.php?id=100094658354865 "},"geometry":{"type":"Point","coordinates":[16.230332298919,38.596894730479]}},{"type":"Feature","properties":{"Associazione":"Coordinamento Nazionale Augustus<br \/> ","Rischi":"Alluvione, Terremoto, Maremoto ","Quando":"14\/10\/2023 09:00-20:00<br \/>15\/10\/2023 09:00-13:00<br \/>","Regione":"Calabria","Provincia":"Vibo Valentia","Comune":"Vibo Valentia","Indirizzo":"Piazza Martiri D'Ungheria, Vibo Valentia (VV)","Link":"https:\/\/augustusvibovalentia.it\/ https:\/\/www.facebook.com\/iononrischiovibovalentia https:\/\/www.instagram.com\/augustusvibo\/ https:\/\/twitter.com\/iononrischio"},"geometry":{"type":"Point","coordinates":[16.098562541038,38.67492237136]}},{"type":"Feature","properties":{"Associazione":"CONFRATERNITA DI MISERICORDIA DI ALTAVILLA IRPINA ODV<br \/> ","Rischi":"Alluvione, Terremoto, Maremoto ","Quando":"14\/10\/2023 17:00-18:00<br \/> 15\/10\/2023 17:00-18:00<br \/> ","Regione":"Campania","Provincia":"Avellino","Comune":"Altavilla Irpina","Indirizzo":"piazza Quattro Novembre, Altavilla Irpina (AV)","Link":"www.misericordiadialtavilla.it "},"geometry":{"type":"Point","coordinates":[14.777659636532,41.006146954039]}},{"type":"Feature","properties":{"Associazione":"misericordia di Atripalda<br \/> ","Rischi":"Alluvione, Campi Flegrei, Terremoto, Maremoto ","Quando":"15\/10\/2023 09:00-13:00<br \/>","Regione":"Campania","Provincia":"Avellino","Comune":"Atripalda","Indirizzo":"piazza Umberto I, Atripalda (AV)","Link":"http:\/\/www.misericordiadiatripalda.it\/ https:\/\/facebook.com\/profile.php?id=61550796299407 "},"geometry":{"type":"Point","coordinates":[14.833450522373,40.920737408819]}},{"type":"Feature","properties":{"Associazione":"Gruppo Volontari Protezione Civile Montella ODV<br \/> ","Rischio":"Alluvione ","Quando":"14\/10\/2023 13:00-15:00<br \/>15\/10\/2023 10:00-13:00<br \/>","Regione":"Campania","Provincia":"Avellino","Comune":"Cassano Irpino","Indirizzo":"Via Croce, Cassano Irpino (AV)","Link":"https:\/\/www.facebook.com\/profile.php?id=61552132678449 https:\/\/www.instagram.com\/iononrischio_cassanoirpino\/?hl=it "},"geometry":{"type":"Point","coordinates":[15.027265548597,40.870475873939]}},{"type":"Feature","properties":{"Associazione":"Pubblica assistenza N. Ruggiero-f.della sala<br \/> ","Rischio":"Terremoto, Maremoto ","Quando":"14\/10\/2023 09:00-21:00<br \/> ","Regione":"Campania","Provincia":"Avellino","Comune":"Lioni","Indirizzo":"piazza aldo moro 12, Lioni (AV)","Link":"https:\/\/www.facebook.com\/ProtezioneCivileCampania "},"geometry":{"type":"Point","coordinates":[15.189586073826,40.877720540894]}},{"type":"Feature","properties":{"Associazione":"PUBBLICA ASSISTENZA MONTEMILETTO ODV<br \/> ","Rischio":"Terremoto, Maremoto ","Quando":"14\/10\/2023 14:00-17:30<br \/>15\/10\/2023 10:00-12:30<br \/>15\/10\/2023 14:00-18:00<br \/>","Regione":"Campania","Provincia":"Avellino","Comune":"Montemiletto","Indirizzo":"Piazza IV Novembre, Montemiletto (AV)","Link":"https:\/\/www.facebook.com\/anpas.montemiletto?locale=it_IT "},"geometry":{"type":"Point","coordinates":[14.908181126209,41.011478635312]}},{"type":"Feature","properties":{"Associazione":"coordinamento prociv avellino<br \/> ","Rischio":"Terremoto, Maremoto ","Quando":"14\/10\/2023 09:00-13:00<br \/> ","Regione":"Campania","Provincia":"Avellino","Comune":"Sant'Angelo dei Lombardi","Indirizzo":" VIA VALLEGRANDE, Sant'Angelo dei Lombardi (AV)","Link":"https:\/\/www.facebook.com\/ProtezioneCivileCampania "},"geometry":{"type":"Point","coordinates":[15.179561141444,40.928717458583]}},{"type":"Feature","properties":{"Associazione":"Gruppo Comunale Volontari Protezione Civile di Bucciano <br \/> ","Rischio":"Terremoto, Maremoto ","Quando":"15\/10\/2023 10:00-20:00<br \/>","Regione":"Campania","Provincia":"Benevento","Comune":"Bucciano","Indirizzo":"Via Provinciale, Bucciano (BN)","Link":"https:\/\/www.facebook.com\/procivbucciano https:\/\/www.facebook.com\/profile.php?id=61550318882793 https:\/\/www.instagram.com\/io_non_rischio\/ https:\/\/twitter.com\/iononrischio"},"geometry":{"type":"Point","coordinates":[14.567690053879,41.077602563074]}},{"type":"Feature","properties":{"Associazione":"Gruppo comunale Protezione Civile di Cerreto Sannita<br \/> ","Rischio":"Terremoto, Maremoto ","Quando":"15\/10\/2023 09:00-13:00<br \/>","Regione":"Campania","Provincia":"Benevento","Comune":"Cerreto Sannita","Indirizzo":"Piazza G.B. Manni, Cerreto Sannita (BN)","Link":"https:\/\/www.facebook.com\/profile.php?id=100086889092034&locale=it_IT "},"geometry":{"type":"Point","coordinates":[14.558630513709,41.284169007398]}},{"type":"Feature","properties":{"Associazione":"ODV Associazione Nazionale Polizia di Stato sezione di Benevento<br \/> ","Rischi":"Alluvione, Terremoto, Maremoto ","Quando":"15\/10\/2023 10:13-16:19<br \/> ","Regione":"Campania","Provincia":"Benevento","Comune":"San Giorgio del Sannio","Indirizzo":"Piazza Risorgimento, San Giorgio del Sannio (BN)","Link":"https:\/\/www.facebook.com\/iononrischiobenevento "},"geometry":{"type":"Point","coordinates":[14.854206584646,41.061806354744]}},{"type":"Feature","properties":{"Associazione":"ODV Associazione Nazionale Polizia di Stato sezione di Benevento<br \/> ","Rischio":"Terremoto, Maremoto ","Quando":"15\/10\/2023 10:00-19:00<br \/>","Regione":"Campania","Provincia":"Benevento","Comune":"San Giorgio del Sannio","Indirizzo":"Piazza risorgimento, San Giorgio del Sannio (BN)","Link":"https:\/\/www.facebook.com\/ProtezioneCivileCampania "},"geometry":{"type":"Point","coordinates":[14.853765599476,41.062979330161]}},{"type":"Feature","properties":{"Associazione":"Pubblica assistenza protezione civile Telesia<br \/> ","Rischio":"Alluvione ","Quando":"14\/10\/2023 09:30-20:00<br \/>","Regione":"Campania","Provincia":"Benevento","Comune":"Telese Terme","Indirizzo":"Viale Minieri 173, Telese Terme (BN)","Link":"www.protezioneciviletelesia.it https:\/\/www.facebook.com\/iononrischioteleseterme "},"geometry":{"type":"Point","coordinates":[14.527629017393,41.219306382339]}},{"type":"Feature","properties":{"Associazione":"Vigili di Protezione Civile - Regione Campania   sede di Alvignano CE )<br \/> ","Rischio":"Alluvione ","Quando":"15\/10\/2023 09:00-18:30<br \/>","Regione":"Campania","Provincia":"Caserta","Comune":"Alvignano","Indirizzo":"Piazza Notar Paoli, Alvignano (CE)","Link":"https:\/\/instagram.com\/vpc_alvignano?igshid=MmU2YjMzNjRlOQ== "},"geometry":{"type":"Point","coordinates":[14.33697267078,41.245307183776]}},{"type":"Feature","properties":{"Associazioni":"sosalvignanosoccorsoanpas<br \/> Vigili di Protezione Civile - Regione Campania   sede di Alvignano CE )<br \/> ","Rischio":"Terremoto, Maremoto ","Quando":"14\/10\/2023 09:00-17:00<br \/>15\/10\/2023 09:00-17:00<br \/>","Regione":"Campania","Provincia":"Caserta","Comune":"Alvignano","Indirizzo":"Piazza Notarpaoli, Alvignano (CE)","Link":"https:\/\/www.facebook.com\/lavorandoe "},"geometry":{"type":"Point","coordinates":[14.336940557167,41.245340245615]}},{"type":"Feature","properties":{"Associazione":"Associazione Radiosoccorso SOS Capua<br \/> ","Rischio":"Alluvione ","Quando":"14\/10\/2023 10:00-18:00<br \/>15\/10\/2023 10:00-13:00<br \/>","Regione":"Campania","Provincia":"Caserta","Comune":"Capua","Indirizzo":"Piazza dei Giudici, Snc, Capua (CE)","Link":"https:\/\/www.soscapua.it\/ https:\/\/www.facebook.com\/protezionecivile.soscapua\/ https:\/\/instagram.com\/sos_radiosoccorso.capua "},"geometry":{"type":"Point","coordinates":[14.211536528479,41.107990854412]}},{"type":"Feature","properties":{"Associazione":"OdV Protezione Civile Radio Emergency sezione IQ8YF di Casal di Principe<br \/> ","Rischio":"Alluvione ","Quando":"15\/01\/2023 08:00-13:00<br \/>","Regione":"Campania","Provincia":"Caserta","Comune":"Casal di Principe","Indirizzo":"PiazzaVilla, Casal di Principe (CE)","Link":"https:\/\/www.facebook.com\/profile.php?id=100095471562034 "},"geometry":{"type":"Point","coordinates":[14.122787101129,41.006588712392]}},{"type":"Feature","properties":{"Associazione":"Protezione civile Comune di Casapulla<br \/> ","Rischio":"Terremoto, Maremoto ","Quando":"14\/10\/2023 15:30-23:30<br \/>","Regione":"Campania","Provincia":"Caserta","Comune":"Casapulla","Indirizzo":"Piazza S. Roberto Bellarmino Casapulla CE, Casapulla (CE)","Link":"https:\/\/www.facebook.com\/prot.civilecasapulla "},"geometry":{"type":"Point","coordinates":[14.290334073746,41.08075348957]}},{"type":"Feature","properties":{"Associazione":"Gruppo Comunale Protezione Civile Marcianise<br \/> ","Rischi":"Alluvione, Terremoto, Maremoto ","Quando":"15\/10\/2023 08:00-13:00<br \/>","Regione":"Campania","Provincia":"Caserta","Comune":"Marcianise","Indirizzo":"Via Roma, Piazza Umberto I, Marcianise (CE)","Link":"https:\/\/www.facebook.com\/profile.php?id=61552184723369 "},"geometry":{"type":"Point","coordinates":[14.29949677303,41.035210666449]}},{"type":"Feature","properties":{"Associazione":"Associazione Europea Operatori  Polizia sezione di Parete \u2013 Aversa ODV<br \/> ","Rischi":"Alluvione, Terremoto, Maremoto ","Quando":"15\/10\/2023 09:00-13:30<br \/> ","Regione":"Campania","Provincia":"Caserta","Comune":"Parete","Indirizzo":"piazza berlinguer, parete, Parete (CE)","Link":"https:\/\/www.facebook.com\/iononrischioparete "},"geometry":{"type":"Point","coordinates":[14.165009993518,40.960013722722]}},{"type":"Feature","properties":{"Associazione":"Gruppo Comunale Volontari Protezione Civle San Nicola la Strada <br \/> ","Rischio":"Alluvione ","Quando":"15\/10\/2023 09:00-18:00<br \/>","Regione":"Campania","Provincia":"Caserta","Comune":"San Nicola la Strada","Indirizzo":" VIA LARGO RODONDA , San Nicola la Strada (CE)","Link":"https:\/\/www.facebook.com\/people\/NUCLEO-PROTEZIONE-CIVILE-SAN-NICOLA-LA-STRADA\/100064560079188\/ "},"geometry":{"type":"Point","coordinates":[14.326686859131,41.050639466182]}},{"type":"Feature","properties":{"Associazione":"gruppo comunale protezione civile santa maria capua vetere<br \/> ","Rischio":"Terremoto, Maremoto ","Quando":"14\/10\/2023 09:30-21:00<br \/>15\/10\/2023 09:30-21:00<br \/>","Regione":"Campania","Provincia":"Caserta","Comune":"Santa Maria Capua Vetere","Indirizzo":"piazza BOVIO, Santa Maria Capua Vetere (CE)","Link":"https:\/\/www.facebook.com\/ProtezioneCivileCampania "},"geometry":{"type":"Point","coordinates":[14.256500601659,41.079914400744]}},{"type":"Feature","properties":{"Associazione":"gruppo comunale protezione civile santa maria capua vetere<br \/> ","Rischio":"Terremoto, Maremoto ","Quando":"14\/10\/2023 09:00-22:00<br \/>15\/10\/2023 10:00-21:00<br \/>","Regione":"Campania","Provincia":"Caserta","Comune":"Santa Maria Capua Vetere","Indirizzo":"piazza BOVIO, Santa Maria Capua Vetere (CE)","Link":"https:\/\/www.facebook.com\/ProtezioneCivileSantaMariaCapuaVetere "},"geometry":{"type":"Point","coordinates":[14.25650238969,41.079908840685]}},{"type":"Feature","properties":{"Associazione":"NUCLEO VOLONTARIATO E PROTEZIONE CIVILE ANC BACOLI ODV<br \/> ","Rischio":"Campi Flegrei ","Quando":"14\/10\/2023 16:00-20:00<br \/>15\/10\/2023 09:00-13:00<br \/>","Regione":"Campania","Provincia":"Napoli","Comune":"Bacoli","Indirizzo":"villa vanvitelli, parco  borbonico del fusaro, Bacoli (NA)","Link":"https:\/\/www.facebook.com\/iononrischionapolivomero "},"geometry":{"type":"Point","coordinates":[14.06003953845,40.819053646094]}},{"type":"Feature","properties":{"Associazione":"PROTEZIONE CIVILE FALCO ODV<br \/> ","Rischio":"Campi Flegrei ","Quando":"15\/10\/2023 16:00-19:00<br \/>","Regione":"Campania","Provincia":"Napoli","Comune":"Bacoli","Indirizzo":"Villa Comunale, Bacoli (NA)","Link":"www.pcfalco.org https:\/\/www.facebook.com\/protezionecivilefalco https:\/\/www.instagram.com\/protezione_civile_falco_\/ "},"geometry":{"type":"Point","coordinates":[14.078221182858,40.796123980705]}},{"type":"Feature","properties":{"Associazione":"Forio C.B. ODV<br \/> ","Rischio":"Alluvione ","Quando":"14\/10\/2023 09:00-17:00<br \/>15\/10\/2023 09:00-17:00<br \/>","Regione":"Campania","Provincia":"Napoli","Comune":"Forio","Indirizzo":"Piazza San Gaetano, Forio (NA)","Link":"https:\/\/www.facebook.com\/profile.php?id=100086197628751 https:\/\/instagram.com\/foriocb?igshid=MzRlODBiNWFlZA== "},"geometry":{"type":"Point","coordinates":[13.859952618864,40.7374264747]}},{"type":"Feature","properties":{"Associazione":"Sicurezza Sociale ODV-ETS<br \/> ","Rischi":"Alluvione, Terremoto, Maremoto ","Quando":"14\/10\/2023 08:30-19:30<br \/>15\/10\/2023 08:30-19:30<br \/>","Regione":"Campania","Provincia":"Napoli","Comune":"Frattaminore","Indirizzo":"Piazza San Maurizio, Frattaminore (NA)","Link":"https:\/\/www.facebook.com\/photo?fbid=295448423242295&set=a.130934869693652 "},"geometry":{"type":"Point","coordinates":[14.257570630861,40.926363664176]}},{"type":"Feature","properties":{"Associazione":"Salamandra Ass. Naz. Vol. Prot. civ. e Ambiente<br \/> ","Rischio":"Terremoto, Maremoto ","Quando":"14\/10\/2023 09:00-14:00<br \/>","Regione":"Campania","Provincia":"Napoli","Comune":"Marigliano","Indirizzo":"piazza Municipio, Marigliano (NA)","Link":"https:\/\/www.facebook.com\/profile.php?id=100085898362703 "},"geometry":{"type":"Point","coordinates":[14.458042536049,40.9257739992]}},{"type":"Feature","properties":{"Associazione":"PROTEZIONE CIVILE FALCO ODV<br \/> ","Rischi":"Campi Flegrei, Terremoto, Maremoto ","Quando":"15\/10\/2023 10:00-14:00<br \/>","Regione":"Campania","Provincia":"Napoli","Comune":"Monte di Procida","Indirizzo":"Piazza 27 gennaio, Monte di Procida (NA)","Link":"www.pcfalco.org https:\/\/www.facebook.com\/protezionecivilefalco https:\/\/www.instagram.com\/protezione_civile_falco_\/ "},"geometry":{"type":"Point","coordinates":[14.0514028802,40.796137382233]}},{"type":"Feature","properties":{"Associazione":"Croce Rossa Italiana - Comitato di Napoli<br \/> ","Rischi":"Alluvione, Campi Flegrei, Terremoto, Maremoto ","Quando":"14\/10\/2023 09:00-17:30<br \/>15\/10\/2023 09:00-17:30<br \/>","Regione":"Campania","Provincia":"Napoli","Comune":"Mugnano di Napoli","Indirizzo":" Via Napoli, 212, Mugnano di Napoli (NA)","Link":"https:\/\/www.facebook.com\/INRCrinapoli "},"geometry":{"type":"Point","coordinates":[14.208596958763,40.900878651162]}},{"type":"Feature","properties":{"Associazione":"Associazione Falchi del Sud - Napoli<br \/> ","Rischio":"Campi Flegrei ","Quando":"14\/10\/2023 09:00-19:00<br \/>15\/10\/2023 09:00-14:00<br \/>","Regione":"Campania","Provincia":"Napoli","Comune":"Napoli","Indirizzo":"Via Giovanni Merliani\/angolo via A. Scarlatti, Napoli (NA)","Link":"https:\/\/www.facebook.com\/iononrischionapolivomero "},"geometry":{"type":"Point","coordinates":[14.229258298874,40.84376115449]}},{"type":"Feature","properties":{"Associazione":"Misericordia di Poggiomarino<br \/> ","Rischio":"Terremoto, Maremoto ","Quando":"15\/10\/2023 10:00-18:00<br \/>","Regione":"Campania","Provincia":"Napoli","Comune":"Poggiomarino","Indirizzo":"Piazza De marinis , Poggiomarino (NA)","Link":"https:\/\/www.facebook.com\/profile.php?id=100085999190016 https:\/\/www.facebook.com\/profile.php?id=100085999190016 "},"geometry":{"type":"Point","coordinates":[14.539410293124,40.79952799279]}},{"type":"Feature","properties":{"Associazione":"GCVPC - Gruppo Comunale Volontari di Protezione Civile del comune di Quarto<br \/> ","Rischi":"Campi Flegrei, Terremoto, Maremoto ","Quando":"14\/10\/2023 10:00-14:00<br \/>15\/10\/2023 10:00-14:00<br \/>","Regione":"Campania","Provincia":"Napoli","Comune":"Quarto","Indirizzo":"piazza Santa Maria, Quarto (NA)","Link":"https:\/\/www.facebook.com\/iononrischioquartonapoli "},"geometry":{"type":"Point","coordinates":[14.145768697843,40.878770978221]}},{"type":"Feature","properties":{"Associazione":"CORPO VOLONTARI DI PRONTO INTERVENTO<br \/> ","Rischio":"Terremoto, Maremoto ","Quando":"15\/10\/2023 09:00-13:00<br \/>","Regione":"Campania","Provincia":"Napoli","Comune":"Somma Vesuviana","Indirizzo":"PIAZZA VITTORIO EMANUELE III, Somma Vesuviana (NA)","Link":"https:\/\/www.facebook.com\/iononrischiosommavesuviana\/ "},"geometry":{"type":"Point","coordinates":[14.438268542181,40.871821949886]}},{"type":"Feature","properties":{"Associazione":"PUBBLICA ASSISTENZA CITTA' DI ANGRI<br \/> ","Rischio":"Terremoto, Maremoto ","Quando":"14\/10\/2023 17:00-21:00<br \/>15\/10\/2023 10:00-21:00<br \/>","Regione":"Campania","Provincia":"Salerno","Comune":"Angri","Indirizzo":"Piazza Doria, Angri (SA)","Link":"https:\/\/www.facebook.com\/inr2020angri "},"geometry":{"type":"Point","coordinates":[14.572415300106,40.737981342384]}},{"type":"Feature","properties":{"Associazione":"P.A. MILLENIUM AMALFI ODV<br \/> ","Rischio":"Alluvione ","Quando":"14\/10\/2023 10:30-14:00<br \/>15\/10\/2023 10:30-14:00<br \/>","Regione":"Campania","Provincia":"Salerno","Comune":"Atrani","Indirizzo":"Piazza Umberto I, Atrani (SA)","Link":"https:\/\/www.gestionaleinr.it\/ https:\/\/www.facebook.com\/iononrischio\/ https:\/\/www.instagram.com\/io_non_rischio\/ "},"geometry":{"type":"Point","coordinates":[14.608836346339,40.635972469446]}},{"type":"Feature","properties":{"Associazione":"ASSOCIAZIONE DI VOLONTARIATO MANI AMICHE<br \/> ","Rischi":"Alluvione, Campi Flegrei, Stromboli, Vulcano, Terremoto, Maremoto ","Quando":"15\/10\/2023 08:00-13:00<br \/> ","Regione":"Campania","Provincia":"Salerno","Comune":"Cava de' Tirreni","Indirizzo":"PIAZZA AMABILE, Cava de' Tirreni (SA)","Link":"WWW.MANIAMICHE.IT https:\/\/www.facebook.com\/maniamichecava\/ "},"geometry":{"type":"Point","coordinates":[14.705461522846,40.70367714609]}},{"type":"Feature","properties":{"Associazione":"Gruppo comunale volontari di Protezione Civile di Cava de'Tirreni<br \/> ","Rischio":"Terremoto, Maremoto ","Quando":"14\/10\/2023 10:00-20:00<br \/>15\/10\/2023 10:00-20:00<br \/>","Regione":"Campania","Provincia":"Salerno","Comune":"Cava de' Tirreni","Indirizzo":"Piazza Vittorio Emanuele III, Cava de' Tirreni (SA)","Link":"https:\/\/www.protezionecivilecava.it https:\/\/www.facebook.com\/protezione.civilecavadetirreni.3 https:\/\/www.instagram.com\/protezionecivilecavadetirreni\/ "},"geometry":{"type":"Point","coordinates":[14.707843328929,40.700153235669]}},{"type":"Feature","properties":{"Associazione":"P.A. RESILIENZA COSTIERA AMALFITANA<br \/> ","Rischio":"Alluvione ","Quando":"14\/10\/2023 15:30-18:30<br \/>15\/10\/2023 10:30-18:30<br \/>","Regione":"Campania","Provincia":"Salerno","Comune":"Conca dei Marini","Indirizzo":"Piazza Olmo, Conca dei Marini (SA)","Link":"https:\/\/iononrischio.gov.it https:\/\/www.facebook.com\/iononrischio\/ https:\/\/www.instagram.com\/io_non_rischio\/ https:\/\/twitter.com\/iononrischio"},"geometry":{"type":"Point","coordinates":[14.571923402399,40.617522009519]}},{"type":"Feature","properties":{"Associazione":"gruppo comunale eboli<br \/> ","Rischio":"Terremoto, Maremoto ","Quando":"15\/10\/2023 10:00-18:00<br \/>","Regione":"Campania","Provincia":"Salerno","Comune":"Eboli","Indirizzo":"PIAZZA DELLA REPUBBLICA, Eboli (SA)","Link":"https:\/\/www.facebook.com\/profile.php?id=100086587766940&locale=it_IT "},"geometry":{"type":"Point","coordinates":[15.056303532659,40.617262229358]}},{"type":"Feature","properties":{"Associazione":"Emergenza Pubblica Irno<br \/> ","Rischi":"Alluvione, Terremoto, Maremoto ","Quando":"14\/10\/2023 09:00-20:00<br \/>","Regione":"Campania","Provincia":"Salerno","Comune":"Mercato San Severino","Indirizzo":"Piazza Ettore Imperio, Mercato San Severino (SA)","Link":"https:\/\/www.facebook.com\/groups\/1739237682908787 "},"geometry":{"type":"Point","coordinates":[14.752835019239,40.785755246506]}},{"type":"Feature","properties":{"Associazioni":"Gruppo Comunale Protezione Civile citt\u00e0 di Nocera Inferiore<br \/> Club Universo soccorso e protezione civile <br \/> ","Rischio":"Terremoto, Maremoto ","Quando":"14\/10\/2023 16:00-14:00<br \/> ","Regione":"Campania","Provincia":"Salerno","Comune":"Nocera Inferiore","Indirizzo":"Piazza Diaz,1, Nocera Inferiore (SA)","Link":"http:\/\/www.protezionecivilenocerainferiore.it https:\/\/www.facebook.com\/iononrischionocerainferiore "},"geometry":{"type":"Point","coordinates":[14.641947923972,40.743323443178]}},{"type":"Feature","properties":{"Associazioni":"ODV Protezione civile pubblica assistenza Etruria <br \/> Associazione Di Volontariato E Protezione Civile \"Noi Con Voi\"<br \/> ","Rischio":"Alluvione ","Quando":"14\/10\/2023 16:00-20:00<br \/>15\/10\/2023 09:00-13:00<br \/>","Regione":"Campania","Provincia":"Salerno","Comune":"Nocera Inferiore","Indirizzo":"piazza Giovanni Amendola , Nocera Inferiore (SA)","Link":"https:\/\/www.facebook.com\/etruria.volontariato https:\/\/instagram.com\/_protezione_civile_p.a_etruria?igshid=NzZlODBkYWE4Ng== "},"geometry":{"type":"Point","coordinates":[14.641500391746,40.742424604692]}},{"type":"Feature","properties":{"Associazione":"PUBBLICA ASSISTENZA A.P.C. PAPA CHARLIE ODV<br \/> ","Rischio":"Terremoto, Maremoto ","Quando":"14\/10\/2023 17:00-20:00<br \/>15\/10\/2023 10:00-13:00<br \/>","Regione":"Campania","Provincia":"Salerno","Comune":"Pagani","Indirizzo":"Piazza S. Alfonso , Pagani (SA)","Link":"www.papacharlie.it  https:\/\/www.facebook.com\/charlie.papadue.3 https:\/\/www.instagram.com\/papacharlie1991\/ "},"geometry":{"type":"Point","coordinates":[14.610595854995,40.742487207546]}},{"type":"Feature","properties":{"Associazione":"P.A. RESILIENZA COSTIERA AMALFITANA<br \/> ","Rischio":"Alluvione ","Quando":"14\/10\/2023 18:00-23:00<br \/>15\/10\/2023 10:30-18:30<br \/>","Regione":"Campania","Provincia":"Salerno","Comune":"Praiano","Indirizzo":"PIAZZA SAN GENNARO, Praiano (SA)","Link":"https:\/\/www.iononrischio.gov.it\/ https:\/\/www.facebook.com\/iononrischio\/ https:\/\/www.instagram.com\/io_non_rischio\/ https:\/\/twitter.com\/iononrischio"},"geometry":{"type":"Point","coordinates":[14.522459649017,40.612391943773]}},{"type":"Feature","properties":{"Associazione":"Nucleo Protezione Civile Roccapiemonte<br \/> ","Rischi":"Alluvione, Terremoto, Maremoto ","Quando":"15\/10\/2023 09:00-13:00<br \/> ","Regione":"Campania","Provincia":"Salerno","Comune":"Roccapiemonte","Indirizzo":"Piazza Zanardelli, Roccapiemonte (SA)","Link":""},"geometry":{"type":"Point","coordinates":[14.692253233778,40.762247156426]}},{"type":"Feature","properties":{"Associazione":"Gruppo Comunale Protezione Civile  Salerno<br \/> ","Rischio":"Terremoto, Maremoto ","Quando":"14\/10\/2023 08:00-20:00<br \/>","Regione":"Campania","Provincia":"Salerno","Comune":"Salerno","Indirizzo":"Piazza Sedile di Portanova, Salerno (SA)","Link":"https:\/\/www.comune.salerno.it\/ https:\/\/www.facebook.com\/ProtezionecivilecomunediSalerno\/ "},"geometry":{"type":"Point","coordinates":[14.762489259564,40.678125080374]}},{"type":"Feature","properties":{"Associazione":"Vi.Vas. ODV<br \/> ","Rischio":"Terremoto, Maremoto ","Quando":"14\/10\/2023 09:30-19:00<br \/>15\/10\/2023 09:30-19:00<br \/>","Regione":"Campania","Provincia":"Salerno","Comune":"San Marzano sul Sarno","Indirizzo":"piazza umberto I, San Marzano sul Sarno (SA)","Link":"https:\/\/www.facebook.com\/profile.php?id=100085835418645 "},"geometry":{"type":"Point","coordinates":[14.588576025502,40.774785288629]}},{"type":"Feature","properties":{"Associazione":"ODV I  Sarrastri<br \/> ","Rischio":"Alluvione ","Quando":"15\/10\/2023 09:00-13:00<br \/>","Regione":"Campania","Provincia":"Salerno","Comune":"Sarno","Indirizzo":"Piazza 5 Maggio, Sarno (SA)","Link":"https:\/\/www.facebook.com\/IoNonRischioSarno "},"geometry":{"type":"Point","coordinates":[14.61829501642,40.812829115647]}},{"type":"Feature","properties":{"Associazione":"Protezione Civile Sassano Gruppo Lucano<br \/> ","Rischio":"Terremoto, Maremoto ","Quando":"14\/10\/2023 10:00-19:00<br \/>15\/10\/2023 10:00-19:00<br \/>","Regione":"Campania","Provincia":"Salerno","Comune":"Sassano","Indirizzo":"Villa Comunale, Silla di Sassano , Sassano (SA)","Link":"https:\/\/www.facebook.com\/profile.php?id=100086545001210 "},"geometry":{"type":"Point","coordinates":[15.58730913098,40.358904805734]}},{"type":"Feature","properties":{"Associazioni":"PUBBLICA ASSISTENZA CROCE AZZURRA CITTA' DI SIANO<br \/> Confraternita Misericordia di Siano O.D.V.<br \/> ","Rischio":"Alluvione ","Quando":"15\/10\/2023 09:00-13:00<br \/>","Regione":"Campania","Provincia":"Salerno","Comune":"Siano","Indirizzo":"Piazza San Rocco , Siano (SA)","Link":"https:\/\/www.facebook.com\/profile.php?id=100086277673321 "},"geometry":{"type":"Point","coordinates":[14.691220521927,40.801783964245]}},{"type":"Feature","properties":{"Associazione":"P.A. I Colibr\u00ec<br \/> ","Rischio":"Terremoto, Maremoto ","Quando":"15\/10\/2023 09:00-18:00<br \/>","Regione":"Campania","Provincia":"Salerno","Comune":"Tramonti","Indirizzo":"Piazza Polvica - Polvica, Tramonti, SA, Tramonti (SA)","Link":"https:\/\/www.facebook.com\/iononrischiotramonti "},"geometry":{"type":"Point","coordinates":[14.638957218408,40.694453175197]}},{"type":"Feature","properties":{"Associazione":"Associazione Protezione Civile Cilens Dea ODV citt\u00e0 di Vallo della Lucania <br \/> ","Rischi":"Alluvione, Terremoto, Maremoto ","Quando":"14\/10\/2023 09:00-13:00<br \/> ","Regione":"Campania","Provincia":"Salerno","Comune":"Vallo della Lucania","Indirizzo":"P.zza V. Emanuele, Vallo della Lucania (SA)","Link":"https:\/\/www.facebook.com\/ProtezioneCivileCampania "},"geometry":{"type":"Point","coordinates":[15.267281299542,40.229520811139]}},{"type":"Feature","properties":{"Associazioni":"Pubblica Assistenza Citt\u00e0\u00a0di Bologna<br \/> Pro-Ing<br \/> Pubblica Assistenza Monterenzio<br \/> unitalsi<br \/> ","Rischio":"Terremoto, Maremoto ","Quando":"15\/10\/2023 09:00-18:00<br \/>","Regione":"Emilia-Romagna","Provincia":"Bologna","Comune":"Bologna","Indirizzo":"Piazza XX Settembre, Bologna (BO)","Link":"https:\/\/www.facebook.com\/iononrischiobologna "},"geometry":{"type":"Point","coordinates":[11.344620507941,44.503521754585]}},{"type":"Feature","properties":{"Associazioni":"C.B. NETTUNO ODV<br \/> Psicologi per i Popoli Emilia Romagna<br \/> ","Rischi":"Alluvione, Terremoto, Maremoto ","Quando":"14\/10\/2023 09:00-18:00<br \/>15\/10\/2023 09:00-18:00<br \/>","Regione":"Emilia-Romagna","Provincia":"Bologna","Comune":"Bologna","Indirizzo":"Piazza Carducci, Bologna (BO)","Link":"https:\/\/www.cbnettunoodv.org\/ https:\/\/www.facebook.com\/cbnettunoodv.org\/ "},"geometry":{"type":"Point","coordinates":[11.357019629521,44.487587794583]}},{"type":"Feature","properties":{"Associazione":"Volontari Protezione Civile Calderara di Reno<br \/> ","Rischio":"Alluvione ","Quando":"15\/10\/2023 10:00-17:30<br \/>","Regione":"Emilia-Romagna","Provincia":"Bologna","Comune":"Calderara di Reno","Indirizzo":"Piazza Marconi 1, Calderara di Reno (BO)","Link":"https:\/\/www.protezionecivilecalderara.org https:\/\/www.facebook.com\/VolontariProtezioneCivileCalderaraDiReno\/ https:\/\/www.instagram.com\/procivcalderara\/ "},"geometry":{"type":"Point","coordinates":[11.272152069305,44.565775599505]}},{"type":"Feature","properties":{"Associazioni":"Croce Rossa Italiana - Comitato di Imola<br \/> AGESCI - Associazione Guide e Scout Cattolici Italiani<br \/> CORPO GUARDIE AMBIENTALI METROPOLITANE ODV<br \/> ","Rischi":"Alluvione, Terremoto, Maremoto ","Quando":"14\/10\/2023 09:00-18:00<br \/>","Regione":"Emilia-Romagna","Provincia":"Bologna","Comune":"Imola","Indirizzo":"Piazza Caduti per la Libert\u00e0 , Imola (BO)","Link":"https:\/\/www.facebook.com\/iononrischioImola https:\/\/instagram.com\/iononrischioimola "},"geometry":{"type":"Point","coordinates":[11.714222252277,44.353564865958]}},{"type":"Feature","properties":{"Associazione":"Associazione Volontari protezione civile Pegaso Malalbergo<br \/> ","Rischio":"Alluvione ","Quando":"14\/10\/2023 08:00-13:00<br \/> ","Regione":"Emilia-Romagna","Provincia":"Bologna","Comune":"Malalbergo","Indirizzo":"Piazza XXV aprile, Malalbergo (BO)","Link":"www.protezionecivilemalalbergo.it "},"geometry":{"type":"Point","coordinates":[11.486920927206,44.665863557566]}},{"type":"Feature","properties":{"Associazione":"Pubblica Assistenza Monterenzio<br \/> ","Rischio":"Terremoto, Maremoto ","Quando":"14\/10\/2023 09:00-16:00<br \/>","Regione":"Emilia-Romagna","Provincia":"Bologna","Comune":"Monterenzio","Indirizzo":"via Idice 167, Monterenzio (BO)","Link":"http:\/\/www.pubblicamonterenzio.it\/ "},"geometry":{"type":"Point","coordinates":[11.40770215421,44.33046312105]}},{"type":"Feature","properties":{"Associazione":"Associazione Vigili del Fuoco di Monzuno<br \/> ","Rischio":"Alluvione ","Quando":"14\/10\/2023 09:00-12:30<br \/> ","Regione":"Emilia-Romagna","Provincia":"Bologna","Comune":"Monzuno","Indirizzo":"Piazza della Libert\u00e0 , Monzuno (BO)","Link":"https:\/\/www.facebook.com\/profile.php?id=100086621946191 "},"geometry":{"type":"Point","coordinates":[11.256733970386,44.316343300174]}},{"type":"Feature","properties":{"Associazione":"Associazione Vigili del Fuoco di Monzuno<br \/> ","Rischio":"Terremoto, Maremoto ","Quando":"15\/10\/2023 09:00-12:30<br \/> ","Regione":"Emilia-Romagna","Provincia":"Bologna","Comune":"Monzuno","Indirizzo":"Piazza XXIV Maggio, Monzuno (BO)","Link":"https:\/\/www.facebook.com\/profile.php?id=100086621946191 "},"geometry":{"type":"Point","coordinates":[11.271697403141,44.277148671293]}},{"type":"Feature","properties":{"Associazione":"VOLONTARI PROTEZIONE CIVILE PERSICETO - VPCP ODV<br \/> ","Rischio":"Alluvione ","Quando":"14\/10\/2023 09:00-18:00<br \/>15\/10\/2023 09:00-18:00<br \/>","Regione":"Emilia-Romagna","Provincia":"Bologna","Comune":"San Giovanni in Persiceto","Indirizzo":"Piazza del Popolo, San Giovanni in Persiceto (BO)","Link":"http:\/\/www.facebook.com\/iononrischiobologna "},"geometry":{"type":"Point","coordinates":[11.187394415224,44.63847672532]}},{"type":"Feature","properties":{"Associazione":"Pubblica Assistenza Ozzano San Lazzaro<br \/> ","Rischi":"Alluvione, Terremoto, Maremoto ","Quando":"14\/10\/2023 09:00-13:00<br \/> ","Regione":"Emilia-Romagna","Provincia":"Bologna","Comune":"San Lazzaro di Savena","Indirizzo":"Piazza Bracci, San Lazzaro di Savena (BO)","Link":"https:\/\/www.facebook.com\/pubblicaozzano "},"geometry":{"type":"Point","coordinates":[11.408134996891,44.470201670041]}},{"type":"Feature","properties":{"Associazione":"Gruppo Comunale Volontari Protezione Civile Comune di Cesena<br \/> ","Rischi":"Alluvione, Terremoto, Maremoto ","Quando":"14\/10\/2023 09:00-19:00<br \/>15\/10\/2023 09:00-19:00<br \/>","Regione":"Emilia-Romagna","Provincia":"Forl\u00ec-Cesena","Comune":"Cesena","Indirizzo":"Piazza Giovanni Paolo II, Cesena (FC)","Link":"https:\/\/www.facebook.com\/iononrischio-cesena "},"geometry":{"type":"Point","coordinates":[12.245055111803,44.137560657565]}},{"type":"Feature","properties":{"Associazioni":"PROTEZIONE CIVILE SOS FORL\u00cc - ODV<br \/> Raggruppamento GEV di Forl\u00ec odv<br \/> ","Rischio":"Terremoto, Maremoto ","Quando":"15\/10\/2023 10:00-18:00<br \/>","Regione":"Emilia-Romagna","Provincia":"Forl\u00ec-Cesena","Comune":"Forl\u00ec","Indirizzo":"Piazza Aurelio Saffi , Forl\u00ec (FC)","Link":"https:\/\/www.facebook.com\/iononrischioforli\/ "},"geometry":{"type":"Point","coordinates":[12.040092945099,44.22245950104]}},{"type":"Feature","properties":{"Associazione":"PROTEZIONE CIVILE MELDOLA<br \/> ","Rischi":"Alluvione, Terremoto, Maremoto ","Quando":"15\/10\/2023 08:30-10:30<br \/>","Regione":"Emilia-Romagna","Provincia":"Forl\u00ec-Cesena","Comune":"Meldola","Indirizzo":"Istituzione Davide DRUDI, Meldola (FC)","Link":"https:\/\/www.facebook.com\/profile.php?id=61552075352759 "},"geometry":{"type":"Point","coordinates":[12.058464955148,44.113976989438]}},{"type":"Feature","properties":{"Associazione":"PROTEZIONE CIVILE MELDOLA<br \/> ","Rischi":"Alluvione, Terremoto, Maremoto ","Quando":"15\/10\/2023 10:30-13:30<br \/>","Regione":"Emilia-Romagna","Provincia":"Forl\u00ec-Cesena","Comune":"Meldola","Indirizzo":"Piazza Felice Orsini, Meldola (FC)","Link":"https:\/\/www.facebook.com\/profile.php?id=61552075352759 "},"geometry":{"type":"Point","coordinates":[12.060839264453,44.126932127298]}},{"type":"Feature","properties":{"Associazione":"ANA SEZIONE BOLOGNESE ROMAGNOLA<br \/> ","Rischio":"Terremoto, Maremoto ","Quando":"14\/10\/2023 09:00-18:30<br \/>","Regione":"Emilia-Romagna","Provincia":"Forl\u00ec-Cesena","Comune":"Santa Sofia","Indirizzo":"Piazza G. Matteotti, Santa Sofia (FC)","Link":"https:\/\/www.facebook.com\/IoNonRischioSantaSofia\/ "},"geometry":{"type":"Point","coordinates":[11.90798038997,43.94683157361]}},{"type":"Feature","properties":{"Associazioni":"Associazione Volontari Protezione Civile Ferrara<br \/> ASSOCIAZIONE VOLONTARI PROTEZIONE CIVILE OSTELLATO<br \/> ","Rischi":"Alluvione, Terremoto, Maremoto ","Quando":"14\/10\/2023 09:00-18:00<br \/>15\/10\/2023 09:00-18:00<br \/>","Regione":"Emilia-Romagna","Provincia":"Ferrara","Comune":"Ferrara","Indirizzo":"Piazza del Municipio , Ferrara (FE)","Link":"https:\/\/www.avpcferrara.it https:\/\/www.facebook.com\/avpcferrara "},"geometry":{"type":"Point","coordinates":[11.618769465122,44.836003637458]}},{"type":"Feature","properties":{"Associazione":"Protezione Civile Mesola - ODV<br \/> ","Rischio":"Alluvione ","Quando":"14\/10\/2023 09:00-16:00<br \/>15\/10\/2023 10:00-13:00<br \/>","Regione":"Emilia-Romagna","Provincia":"Ferrara","Comune":"Mesola","Indirizzo":"Piazza della Vittoria, Mesola (FE)","Link":"Protezione Civile Mesola (Volontari) IO NON RISCHIO -Mesola VOLONTARI - Protezione Civile Mesola"},"geometry":{"type":"Point","coordinates":[12.229673910441,44.922218581594]}},{"type":"Feature","properties":{"Associazione":"Apc tresignana<br \/> ","Rischi":"Alluvione, Terremoto, Maremoto ","Quando":"14\/10\/2023 09:30-18:00<br \/>15\/10\/2023 09:30-18:00<br \/>","Regione":"Emilia-Romagna","Provincia":"Ferrara","Comune":"Tresignana","Indirizzo":"Piazza Unit\u00e0 d'italia 3, Tresignana (FE)","Link":"https:\/\/www.facebook.com\/profile.php?=100063506234545 "},"geometry":{"type":"Point","coordinates":[11.860161252014,44.84284521007]}},{"type":"Feature","properties":{"Associazione":"PROTEZIONE CIVILE VIGARANO-ODV<br \/> ","Rischi":"Alluvione, Terremoto, Maremoto ","Quando":"14\/10\/2023 09:00-17:00<br \/>","Regione":"Emilia-Romagna","Provincia":"Ferrara","Comune":"Vigarano Mainarda","Indirizzo":"P.zza della Repubblica, 10, Vigarano Mainarda (FE)","Link":"https:\/\/www.facebook.com\/iononrischiovigaranomainarda "},"geometry":{"type":"Point","coordinates":[11.49771494582,44.842380015251]}},{"type":"Feature","properties":{"Associazione":"GRUPPO COMUNALE VOLONTARI PROTEZIONE CIVILE CAMPOGALLIANO<br \/> ","Rischi":"Alluvione, Terremoto, Maremoto ","Quando":"14\/10\/2023 09:00-17:00<br \/>15\/10\/2023 09:00-17:00<br \/>","Regione":"Emilia-Romagna","Provincia":"Modena","Comune":"Campogalliano","Indirizzo":"Piazza Vittorio Emanuele II, Campogalliano (MO)","Link":"https:\/\/facebook.com\/profile.php?id=100064336376349 "},"geometry":{"type":"Point","coordinates":[10.840951720235,44.690355905971]}},{"type":"Feature","properties":{"Associazione":"Gruppo comunale volontari protezione civile Carpi<br \/> ","Rischi":"Alluvione, Terremoto, Maremoto ","Quando":"14\/10\/2023 09:00-18:00<br \/> 15\/10\/2023 09:00-18:00<br \/> ","Regione":"Emilia-Romagna","Provincia":"Modena","Comune":"Carpi","Indirizzo":"Piazza Martiri, 26, Carpi (MO)","Link":"https:\/\/www.facebook.com\/profile.php?id=100095228157731&sk=about "},"geometry":{"type":"Point","coordinates":[10.885003333943,44.783555294123]}},{"type":"Feature","properties":{"Associazione":"Gruppo Comunale Volontari Protezione Civile - Finale Emilia<br \/> ","Rischi":"Alluvione, Terremoto, Maremoto ","Quando":"14\/10\/2023 10:00-15:00<br \/>","Regione":"Emilia-Romagna","Provincia":"Modena","Comune":"Finale Emilia","Indirizzo":"Piazza Verdi, 1, Finale Emilia (MO)","Link":"https:\/\/www.facebook.com\/iononrischiofinaleemilia "},"geometry":{"type":"Point","coordinates":[11.29593721828,44.832011901103]}},{"type":"Feature","properties":{"Associazione":"Gruppo Comunale Volontari Protezione Civile - Finale Emilia<br \/> ","Rischi":"Alluvione, Terremoto, Maremoto ","Quando":"15\/10\/2023 10:00-15:00<br \/>","Regione":"Emilia-Romagna","Provincia":"Modena","Comune":"Finale Emilia","Indirizzo":"Piazza Caduti per la Libert\u00e0, Finale Emilia (MO)","Link":"https:\/\/www.facebook.com\/iononrischiofinaleemilia "},"geometry":{"type":"Point","coordinates":[11.211378218751,44.852372836466]}},{"type":"Feature","properties":{"Associazioni":"GCVPC di Modena<br \/> Croce Blu Modena<br \/> Croce Rossa Italiana - Comitato di Modena OdV<br \/> ","Rischi":"Alluvione, Stromboli, Vulcano, Terremoto, Maremoto ","Quando":"14\/10\/2023 09:00-19:30<br \/>15\/10\/2023 09:00-19:30<br \/>","Regione":"Emilia-Romagna","Provincia":"Modena","Comune":"Modena","Indirizzo":"Piazzale Sant'Agostino, Modena (MO)","Link":"https:\/\/www.cpvpc.it\/cms\/associazioni\/visualizza\/16 https:\/\/www.facebook.com\/IononrischioModena https:\/\/instagram.com\/io_non_rischio_modena?igshid=OGQ5ZDc2ODk2ZA== "},"geometry":{"type":"Point","coordinates":[10.920875707877,44.648449586954]}},{"type":"Feature","properties":{"Associazioni":"GCVPC San Possidonio<br \/> gruppo comunale volontari protezione civile Concordia sulla Secchia<br \/> ","Rischio":"Alluvione ","Quando":"15\/10\/2023 09:30-17:00<br \/>","Regione":"Emilia-Romagna","Provincia":"Modena","Comune":"San Possidonio","Indirizzo":"Piazza Andreoli, San Possidonio (MO)","Link":"https:\/\/www.facebook.com\/p\/Gruppo-Comunale-Protezione-Civile-San-Possidonio-100064794726079\/ "},"geometry":{"type":"Point","coordinates":[10.995938065887,44.89198279455]}},{"type":"Feature","properties":{"Associazione":"Croce Rossa Italiana Comitato di Sassuolo<br \/> ","Rischio":"Terremoto, Maremoto ","Quando":"14\/10\/2023 09:00-18:00<br \/>15\/10\/2023 09:00-18:00<br \/>","Regione":"Emilia-Romagna","Provincia":"Modena","Comune":"Sassuolo","Indirizzo":"Via Cesare Battisti, Sassuolo (MO)","Link":"https:\/\/www.facebook.com\/profile.php?id=100086250115636&locale=it_IT "},"geometry":{"type":"Point","coordinates":[10.782106461097,44.541625245698]}},