{"type":"FeatureCollection","name":"name_to_define","features":[{"type":"Feature","properties":{"Associazione":"SILAMBIENTE BOCCHIGLIERO ODV; ","Rischio":"Terremoto  Maremoto ","Data":"15\/10\/2023 10:00-18:00; ","Regione":"Calabria","Comune":"Bocchigliero","Indirizzo":"PIAZZA ARENTO, Bocchigliero (CS)","Link":"WWW.SILAMBIENTE.IT https:\/\/www.facebook.com\/silambientebocchiglieroODV "},"geometry":{"type":"Point","coordinates":[16.755134761333,39.41808025151]}},{"type":"Feature","properties":{"Associazioni":"Vab Calabria; Odv ChiliPepperTeam; ","Rischio":"Alluvione ","Date":"14\/10\/2023 09:00-18:00; 15\/10\/2023 09:00-18:00; ","Regione":"Calabria","Comune":"Montepaone","Indirizzo":"Piazza San Francesco di paola, Montepaone (CZ)","Link":"https:\/\/iononrischio.protezionecivile.it\/it\/ https:\/\/www.facebook.com\/profile.php?id=100094183879561 "},"geometry":{"type":"Point","coordinates":[16.540898638577,38.728450287348]}},{"type":"Feature","properties":{"Associazione":"ANGELI DEL REVENTINO; ","Rischi":"Alluvione Terremoto  Maremoto ","Data":"15\/10\/2023 08:30-13:00; ","Regione":"Calabria","Comune":"Platania","Indirizzo":"PIAZZA VITTORIO VENETO, Platania (CZ)","Link":"https:\/\/www.facebook.com\/protezionecivile.civile.77 "},"geometry":{"type":"Point","coordinates":[16.319594979286,39.00402375781]}},{"type":"Feature","properties":{"Associazione":"Salvamento Locride Mare; ","Rischio":"Alluvione ","Data":"15\/10\/2023 08:00-17:00; ","Regione":"Calabria","Comune":"Locri","Indirizzo":"piazza dei martiri, Locri (RC)","Link":"https:\/\/www.facebook.com\/profile.php?id=100056017150133&locale=it_IT "},"geometry":{"type":"Point","coordinates":[16.265022421525,38.234719080524]}},{"type":"Feature","properties":{"Associazione":"O.V.P.C.M Melito di Porto Salvo; ","Rischi":"Alluvione Terremoto  Maremoto ","Data":"14\/10\/2023 09:00-18:30; ","Regione":"Calabria","Comune":"Melito di Porto Salvo","Indirizzo":"Corso Garibaldi, Melito di Porto Salvo (RC)","Link":"PROTEZIONE CIVILE MELITO DI PORTO SALVO "},"geometry":{"type":"Point","coordinates":[15.781105035255,37.918493915832]}},{"type":"Feature","properties":{"Associazione":"ISTITUTO PER LA FAMIGLIA; ","Rischio":"Terremoto  Maremoto ","Data":"15\/10\/2023 09:00-18:00; ","Regione":"Calabria","Comune":"Reggio di Calabria","Indirizzo":"Piazza Duomo, Reggio di Calabria (RC)","Link":"https:\/\/www.ipfonlus.it https:\/\/www.facebook.com\/profile.php?id=100086339577911 "},"geometry":{"type":"Point","coordinates":[15.641509979485,38.105837958857]}},{"type":"Feature","properties":{"Associazione":"gruppo comunale protezione civile Gradisca d'isonzo; ","Rischio":"Alluvione ","Data":"14\/10\/2023 09:00-18:00; ","Regione":"Friuli-Venezia Giulia","Comune":"Gradisca d'Isonzo","Indirizzo":"Piazza Unit\u00e0 , Gradisca d'Isonzo (GO)","Link":""},"geometry":{"type":"Point","coordinates":[13.501593422411,45.888407812229]}},{"type":"Feature","properties":{"Associazione":"Protezione Civile Pasiano di Pordenone; ","Rischio":"Alluvione ","Data":"15\/10\/2023 09:00-15:00; ","Regione":"Friuli-Venezia Giulia","Comune":"Pasiano di Pordenone","Indirizzo":"Rivarotta di Pasiano, Pasiano di Pordenone (PN)","Link":""},"geometry":{"type":"Point","coordinates":[12.578321343202,45.845471008487]}},{"type":"Feature","properties":{"Associazione":"Protezione Civile Pasiano di Pordenone; ","Rischio":"Alluvione ","Data":"15\/10\/2023 08:30-15:00; ","Regione":"Friuli-Venezia Giulia","Comune":"Pasiano di Pordenone","Indirizzo":"RIVAROTTA - Fraz. di Pasiano di Pordenone, Pasiano di Pordenone (PN)","Link":"ufficio.pcpasiano@gmail.com  "},"geometry":{"type":"Point","coordinates":[12.578365021439,45.845348907477]}},{"type":"Feature","properties":{"Associazione":"Gruppo Comunale di Trieste; ","Rischio":"Terremoto  Maremoto ","Data":"14\/10\/2023 09:00-17:00; ","Regione":"Friuli-Venezia Giulia","Comune":"Trieste","Indirizzo":"PIAZZA DELLA BORSA, Trieste (TS)","Link":""},"geometry":{"type":"Point","coordinates":[13.770635084404,45.650344247555]}},{"type":"Feature","properties":{"Associazione":"Gruppo Comunale di Volontari del Comune di Latisana; ","Rischio":"Alluvione ","Date":"14\/10\/2023 09:00-18:00; 15\/10\/2023 09:00-18:00; ","Regione":"Friuli-Venezia Giulia","Comune":"Latisana","Indirizzo":"Piazza Garibaldi, Latisana (UD)","Link":"https:\/\/www.comune.latisana.ud.it\/it\/protezione-civile-49944 "},"geometry":{"type":"Point","coordinates":[12.995712678647,45.775689045585]}},{"type":"Feature","properties":{"Associazione":"Gruppo comunale di Protezione Civile di San Giovanni al Natisone; ","Rischio":"Terremoto  Maremoto ","Data":"14\/10\/2023 09:00-18:30; ","Regione":"Friuli-Venezia Giulia","Comune":"San Giovanni al Natisone","Indirizzo":"Piazza Zorutti, San Giovanni al Natisone (UD)","Link":""},"geometry":{"type":"Point","coordinates":[13.39910655229,45.979405975311]}},{"type":"Feature","properties":{"Associazione":"Unit\u00e0 mobile di soccorso molise o.d.v.; ","Rischi":"Alluvione Terremoto  Maremoto ","Data":"14\/10\/2023 08:00-19:00; ","Regione":"Molise","Comune":"Campobasso","Indirizzo":"piazza vittorio emanuele II\u00b0, Campobasso (CB)","Link":"https:\/\/protezionecivile.molise.it "},"geometry":{"type":"Point","coordinates":[14.65938270092,41.558451840393]}},{"type":"Feature","properties":{"Associazione":"Associazione CB Valle Belbo Nizza ER odv; ","Rischio":"Alluvione ","Data":"","Regione":"Piemonte","Comune":"Nizza Monferrato","Indirizzo":"Piazza martiri di Alessandria n. 19, Nizza Monferrato (AT)","Link":"https:\/\/www.facebook.com\/groups\/405269505611?locale=it_IT "},"geometry":{"type":"Point","coordinates":[8.3563613662903,44.77454552576]}},{"type":"Feature","properties":{"Associazione":"Psicologi Per i Popoli-Piemonte ODV; ","Rischio":"Alluvione ","Date":"14\/10\/2023 09:00-18:00; 15\/10\/2023 09:00-18:00; ","Regione":"Piemonte","Comune":"Cuneo","Indirizzo":"Piazza Foro Boario, Cuneo (CN)","Link":"https:\/\/www.facebook.com\/Iononrischio-Cuneo https:\/\/www.instagram.com\/iononrischio.cuneo "},"geometry":{"type":"Point","coordinates":[7.5461196897231,44.392120269505]}},{"type":"Feature","properties":{"Associazione":"Emergenza Radio Carmagnola Volontari Protezione Civile ODV; ","Rischio":"Alluvione ","Data":"","Regione":"Piemonte","Comune":"Carmagnola","Indirizzo":"Piazza S. Agostino, Carmagnola (TO)","Link":"https:\/\/www.facebook.com\/iononrischiocarmagnola "},"geometry":{"type":"Point","coordinates":[7.7191964465072,44.845775790476]}},{"type":"Feature","properties":{"Associazioni":"UNADV; VOLONTARI ANFI ODV; ","Rischi":"Alluvione Terremoto  Maremoto ","Data":"14\/10\/2023 09:00-18:00; ","Regione":"Piemonte","Comune":"Torino","Indirizzo":"Piazza Santa Rita da Cascia, 9, Torino (TO)","Link":"https:\\\\www.volontarianfi.org\\io-non-rischio-2023-2\\ https:\\\\www.facebook.com\\volontarianfitorinoPC\\ "},"geometry":{"type":"Point","coordinates":[7.6465295798443,45.04704186953]}},{"type":"Feature","properties":{"Associazioni":"UNADV; VOLONTARI ANFI ODV; ","Rischi":"Alluvione Terremoto  Maremoto ","Data":"15\/10\/2023 09:00-18:00; ","Regione":"Piemonte","Comune":"Torino","Indirizzo":"C.so Orbassano, 200, Torino (TO)","Link":"https:\\\\www.volontarianfi.org\\io-non-rischio-2023-2\\ https:\\\\www.facebook.com\\volontarianfitorinoPC\\ "},"geometry":{"type":"Point","coordinates":[7.6386413600731,45.04296464182]}},{"type":"Feature","properties":{"Associazione":"CROCE BIANCA VOLPIANESE; ","Rischio":"Alluvione ","Data":"","Regione":"Piemonte","Comune":"Volpiano","Indirizzo":"corso platone, Volpiano (TO)","Link":"https:\/\/www.crocebiancavolpianese.it\/ https:\/\/www.facebook.com\/CroceBiancaVolpianese\/?locale=it_IT https:\/\/www.instagram.com\/crocebiancavolpianese\/ "},"geometry":{"type":"Point","coordinates":[7.7859722346069,45.201460292747]}},{"type":"Feature","properties":{"Associazione":"CROCE BIANCA VOLPIANESE; ","Rischio":"Alluvione ","Data":"","Regione":"Piemonte","Comune":"Volpiano","Indirizzo":"via genova 32, Volpiano (TO)","Link":"https:\/\/www.crocebiancavolpianese.it\/ https:\/\/www.facebook.com\/CroceBiancaVolpianese\/?locale=it_IT https:\/\/www.instagram.com\/crocebiancavolpianese\/ "},"geometry":{"type":"Point","coordinates":[7.7857269881341,45.194746873496]}},{"type":"Feature","properties":{"Associazione":"Nucleo S.T.A.R.T. ODV; ","Rischio":"Alluvione ","Data":"","Regione":"Piemonte","Comune":"Baveno","Indirizzo":"Piazza IV Novembre, Baveno (VB)","Link":"https:\/\/www.facebook.com\/IoNonRischioVerbanoCusioOssola\/ https:\/\/www.instagram.com\/iononrischiovco\/ "},"geometry":{"type":"Point","coordinates":[8.5057749526779,45.908870175956]}},{"type":"Feature","properties":{"Associazione":"Nucleo S.T.A.R.T. ODV; ","Rischio":"Alluvione ","Data":"","Regione":"Piemonte","Comune":"Cannero Riviera","Indirizzo":"Piazza Alpini, Cannero Riviera (VB)","Link":"https:\/\/www.facebook.com\/IoNonRischioVerbanoCusioOssola\/ https:\/\/www.instagram.com\/iononrischiovco\/ "},"geometry":{"type":"Point","coordinates":[8.6838626589458,46.022105150304]}},{"type":"Feature","properties":{"Associazione":"Nucleo S.T.A.R.T. ODV; ","Rischio":"Alluvione ","Data":"","Regione":"Piemonte","Comune":"Cannobio","Indirizzo":"Via Antonio Giovanola, Cannobio (VB)","Link":"https:\/\/www.facebook.com\/IoNonRischioVerbanoCusioOssola\/ https:\/\/www.instagram.com\/iononrischiovco\/ "},"geometry":{"type":"Point","coordinates":[8.6975531400835,46.061616454091]}},{"type":"Feature","properties":{"Associazione":"Nucleo S.T.A.R.T. ODV; ","Rischio":"Alluvione ","Data":"15\/10\/2023 10:00-17:00; ","Regione":"Piemonte","Comune":"Stresa","Indirizzo":"Piazza Marconi, Stresa (VB)","Link":"https:\/\/www.facebook.com\/IoNonRischioVerbanoCusioOssola\/ https:\/\/www.instagram.com\/iononrischiovco\/ "},"geometry":{"type":"Point","coordinates":[8.5414160990456,45.884267084666]}},{"type":"Feature","properties":{"Associazione":"Associazioni convenzionate con la Provincia autonoma di Trento - Consulta del Volontariato di Protezione civile; ","Rischio":"Alluvione ","Date":"14\/10\/2023 09:00-18:00; 15\/10\/2023 09:00-18:00; ","Regione":"Provincia Autonoma di Trento","Comune":"Provincia Autonoma di Trento","Indirizzo":"Piazza delle Donne Lavoratrici, Provincia Autonoma di Trento (BZ)","Link":"https:\/\/www.facebook.com\/dpc.pat "},"geometry":{"type":"Point","coordinates":[11.114652660685,46.06037912913]}},{"type":"Feature","properties":{"Associazione":"Guardia Costiera Ausiliaria Centro Operativo Licata - ODV; ","Rischi":"Alluvione Stromboli  Vulcano Terremoto  Maremoto ","Date":"14\/10\/2023 09:00-19:00; 15\/10\/2023 09:00-19:00; ","Regione":"Sicilia","Comune":"Licata","Indirizzo":"Piazza Attilio Regolo 22, Licata (AG)","Link":"https:\/\/www.facebook.com\/profile.php?id=100064353684957 "},"geometry":{"type":"Point","coordinates":[13.94007829667,37.098206245426]}},{"type":"Feature","properties":{"Associazione":"P.A. Procivis Licata ; ","Rischi":"Alluvione Terremoto  Maremoto ","Date":"14\/10\/2023 09:00-20:00; 15\/10\/2023 09:00-20:00; ","Regione":"Sicilia","Comune":"Licata","Indirizzo":"Via Campobello 159, Licata (AG)","Link":"https:\/\/www.facebook.com\/profile.php?id=100083105238183 "},"geometry":{"type":"Point","coordinates":[13.928373884807,37.113001132984]}},{"type":"Feature","properties":{"Associazione":"Pubblica Assistenza Procivis  OdV Protezione Civile ; ","Rischi":"Alluvione Flegrei Stromboli  Vulcano Terremoto  Maremoto ","Date":"14\/10\/2023 09:00-13:00; 15\/10\/2023 09:00-13:00; ","Regione":"Sicilia","Comune":"Gela","Indirizzo":"Piazza Umberto I  e Villa Auriga Quartiere Macchitella , Gela (CL)","Link":"https:\/\/www.facebook.com\/iononrischiogela\/?locale=it_IT p.a.procivis odv "},"geometry":{"type":"Point","coordinates":[14.250228619935,37.066326823398]}},{"type":"Feature","properties":{"Associazione":"Fraternita Misericordia di Acireale ODV; ","Rischio":"Terremoto  Maremoto ","Date":"14\/10\/2023 10:00-18:00; 15\/10\/2023 10:00-18:00; ","Regione":"Sicilia","Comune":"Acireale","Indirizzo":"Piazza DUOMO, Acireale (CT)","Link":"https:\/\/www.facebook.com\/MisericordiaAcireale https:\/\/www.facebook.com\/profile.php?id=61552013812199 "},"geometry":{"type":"Point","coordinates":[15.16576603476,37.612656161099]}},{"type":"Feature","properties":{"Associazioni":"Fraternita di Misericordia di Catania ODV; associazione catania sub - odv; CNGEI Sezione scout di Catania ODV; EKOS SICILIA; GRUPPO VOLONTARI ITALIA; P. A. SICILIA EMERGENZA ONE O.D.V; ","Rischio":"Terremoto  Maremoto ","Date":"14\/10\/2023 10:00-18:00; 15\/10\/2023 10:00-18:00; ","Regione":"Sicilia","Comune":"Catania","Indirizzo":"Piazza Universita, Catania (CT)","Link":"https:\/\/www.facebook.com\/profile.php?id=61551899487334 https:\/\/www.instagram.com\/iononrischio2023catania\/saved\/ "},"geometry":{"type":"Point","coordinates":[15.086946500209,37.503628977165]}},{"type":"Feature","properties":{"Associazione":"GRUPPO VOLONTARI ITALIA; ","Rischio":"Terremoto  Maremoto ","Date":"14\/10\/2023 09:00-14:00; 15\/10\/2023 09:00-14:00; ","Regione":"Sicilia","Comune":"Mirabella Imbaccari","Indirizzo":"piazza dei Vespri, Mirabella Imbaccari (CT)","Link":"https:\/\/www.facebook.com\/profile.php?id=61551532160379 https:\/\/www.facebook.com\/profile.php?id=61551532160379 "},"geometry":{"type":"Point","coordinates":[14.446279567206,37.324235397634]}},{"type":"Feature","properties":{"Associazione":"Catania; ","Rischio":"Terremoto  Maremoto ","Date":"14\/10\/2023 09:00-20:00; 15\/10\/2023 09:00-20:00; ","Regione":"Sicilia","Comune":"Misterbianco","Indirizzo":"Piazza Mazzini - Piazza Giovanni XXIII\u00b0, Misterbianco (CT)","Link":"https:\/\/www.facebook.com\/profile.php?id=61551369711708 https:\/\/instagram.com\/iononrischio_misterbianco?igshid=NGVhN2U2NjQ0Yg== "},"geometry":{"type":"Point","coordinates":[15.005663355444,37.518241524863]}},{"type":"Feature","properties":{"Associazione":"Associazione di Pubblica Assistenza - Paterno'; ","Rischio":"Terremoto  Maremoto ","Date":"14\/10\/2023 17:00-20:00; 15\/10\/2023 17:00-20:00; ","Regione":"Sicilia","Comune":"Patern\u00f2","Indirizzo":"Piazza Umberto I, Patern\u00f2 (CT)","Link":"http:\/\/iononrischio.protezionecivile.it\/ https:\/\/www.facebook.com\/profile.php?id=100076344463153 "},"geometry":{"type":"Point","coordinates":[14.896080332039,37.567637196263]}},{"type":"Feature","properties":{"Associazione":"Gruppo comunale San Pietro Clarenza ; ","Rischio":"Terremoto  Maremoto ","Date":"14\/10\/2023 10:00-12:00; 15\/10\/2023 10:00-12:00; ","Regione":"Sicilia","Comune":"San Pietro Clarenza","Indirizzo":"Villetta Comunale , San Pietro Clarenza (CT)","Link":""},"geometry":{"type":"Point","coordinates":[15.024132060736,37.572593037933]}},{"type":"Feature","properties":{"Associazione":"Misericordia \u201cM. Immacolata\u201d; ","Rischio":"Terremoto  Maremoto ","Date":"14\/10\/2023 09:30-20:00; 15\/10\/2023 09:30-20:00; ","Regione":"Sicilia","Comune":"Catenanuova","Indirizzo":"PIAZZA MARCONI, Catenanuova (EN)","Link":"https:\/\/www.facebook.com\/inrcatenanuova "},"geometry":{"type":"Point","coordinates":[14.691845052672,37.571008385031]}},{"type":"Feature","properties":{"Associazione":"O.d.V. Armerina Emergenza; ","Rischi":"Alluvione Terremoto  Maremoto ","Date":"14\/10\/2023 10:00-18:00; 15\/10\/2023 10:00-18:00; ","Regione":"Sicilia","Comune":"Piazza Armerina","Indirizzo":"piazza Generale Cascino, Piazza Armerina (EN)","Link":"https:\/\/www.facebook.com\/iononrischiopiazzaarmerina\/ https:\/\/www.facebook.com\/iononrischiopiazzaarmerina\/ "},"geometry":{"type":"Point","coordinates":[14.370902348603,37.386265919869]}},{"type":"Feature","properties":{"Associazione":"Fraternita di misericordia \"S.M. Kolbe\"; ","Rischi":"Alluvione Terremoto  Maremoto ","Date":"14\/10\/2023 10:00-20:00; 15\/10\/2023 10:00-20:00; ","Regione":"Sicilia","Comune":"Regalbuto","Indirizzo":"piazza della repubblica, Regalbuto (EN)","Link":"https:\/\/www.facebook.com\/profile.php?id=61551000136026 "},"geometry":{"type":"Point","coordinates":[14.641016945243,37.652305668898]}},{"type":"Feature","properties":{"Associazione":"CLUB RADIO C.B. ODV; ","Rischi":"Alluvione Stromboli  Vulcano Terremoto  Maremoto ","Data":"15\/10\/2023 08:00-21:00; ","Regione":"Sicilia","Comune":"Barcellona Pozzo di Gotto","Indirizzo":"Piazza Duomo, Barcellona Pozzo di Gotto (ME)","Link":"https:\/\/www.facebook.com\/groups\/iononrischiobarcellonapg\/ "},"geometry":{"type":"Point","coordinates":[15.215805324621,38.144477085299]}},{"type":"Feature","properties":{"Associazioni":"Misericordia di  Letojanni; Corpo Italiano di Soccorso dell Ordine di Malta; ","Rischio":"Terremoto  Maremoto ","Data":"15\/10\/2023 10:00-16:30; ","Regione":"Sicilia","Comune":"Gallodoro","Indirizzo":"Piazza Santa Maria, Gallodoro (ME)","Link":"https:\/\/www.facebook.com\/iononrischiomisericordialetojanniodv https:\/\/www.facebook.com\/iononrischiomisericordialetojanniodv "},"geometry":{"type":"Point","coordinates":[15.293762683868,37.901720138885]}},{"type":"Feature","properties":{"Associazione":"Gruppo Comunale Volontari Protezione Civile di Giardini Naxos; ","Rischio":"Alluvione ","Date":"14\/10\/2023 10:00-19:00; 15\/10\/2023 10:00-19:00; ","Regione":"Sicilia","Comune":"Giardini-Naxos","Indirizzo":"Piazza San Pancrazio (Lungonare Tysandros) , Giardini-Naxos (ME)","Link":"https:\/\/www.facebook.com\/IoNonRischioGiardiniNaxos "},"geometry":{"type":"Point","coordinates":[15.268578164268,37.828408317945]}},{"type":"Feature","properties":{"Associazioni":"RANGERS INTERNATIONAL UCRIA ; RANGERS INTERNATIONAL ODV GIOIOSA MAREA; ","Rischi":"Alluvione Terremoto  Maremoto ","Date":"14\/10\/2023 10:00-18:00; 15\/10\/2023 10:00-18:00; ","Regione":"Sicilia","Comune":"Gioiosa Marea","Indirizzo":"P.zza  Mercato   Gioiosa centro 14 OTTOBRE - P.zza  Tonnara  S.Giorgio di Gioiosa Marea 15 OTTOBRE, Gioiosa Marea (ME)","Link":"https:\/\/www.facebook.com\/profile.php?id=61551157832666 https:\/\/www.facebook.com\/profile.php?id=61551157832666 "},"geometry":{"type":"Point","coordinates":[14.943748171634,38.175609533845]}},{"type":"Feature","properties":{"Associazione":"ARE- ASSOCIAZIONE RADIOAMATORI EOLIANI; ","Rischi":"Alluvione Flegrei Stromboli  Vulcano Terremoto  Maremoto ","Date":"14\/10\/2023 09:30-14:00; 15\/10\/2023 09:30-14:00; ","Regione":"Sicilia","Comune":"Lipari","Indirizzo":"Corso Vittorio Emanuele, Lipari (ME)","Link":"https:\/\/www.facebook.com\/iononrischiolipari https:\/\/www.facebook.com\/iononrischiolipari "},"geometry":{"type":"Point","coordinates":[14.954665104042,38.467685544168]}},{"type":"Feature","properties":{"Associazione":"Volontari Isola Stromboli (V.I.S.); ","Rischi":"Alluvione Stromboli  Vulcano Terremoto  Maremoto ","Data":"15\/10\/2023 10:00-13:00; ","Regione":"Sicilia","Comune":"Lipari","Indirizzo":"Piazza San Vicenzo 1, Lipari (ME)","Link":"Www.volontarisolastromboli.org https:\/\/www.facebook.com\/profile.php?id=61552029743492 "},"geometry":{"type":"Point","coordinates":[15.238074660301,38.803015452396]}},{"type":"Feature","properties":{"Associazione":"Associazione Mari e Monti 2004 Messina; ","Rischio":"Terremoto  Maremoto ","Date":"14\/10\/2023 10:00-18:00; 15\/10\/2023 10:00-18:00; ","Regione":"Sicilia","Comune":"Messina","Indirizzo":"Piazza Cairoli lato monte, Messina (ME)","Link":"https:\/\/www.facebook.com\/iononrischio2023 "},"geometry":{"type":"Point","coordinates":[15.555850227358,38.186386164706]}},{"type":"Feature","properties":{"Associazione":"NOE nucleo operativo emergenze ; ","Rischio":"Terremoto  Maremoto ","Date":"14\/10\/2023 09:00-18:00; 15\/10\/2023 09:00-18:00; ","Regione":"Sicilia","Comune":"Messina","Indirizzo":"PIAZZA CAIROLI LATO MARE, Messina (ME)","Link":"https:\/\/www.facebook.com\/profile.php?id=61551752371932 https:\/\/www.instagram.com\/io_non_rischio_messina_cairoli\/?igshid=OGQ5ZDc2ODk2ZA%3D%3D "},"geometry":{"type":"Point","coordinates":[15.556637174271,38.185338134728]}},{"type":"Feature","properties":{"Associazioni":"Castel Gonzaga Associazione ODV; Legambiente; ","Rischio":"Terremoto  Maremoto ","Date":"14\/10\/2023 09:00-20:00; 15\/10\/2023 09:00-20:00; ","Regione":"Sicilia","Comune":"Messina","Indirizzo":"VIA MAREGROSSO, 24\/26, Messina (ME)","Link":"https:\/\/castelgonzaga.wixsite.com\/castelgonzagaodv https:\/\/www.facebook.com\/messina.iononrischio2023 "},"geometry":{"type":"Point","coordinates":[15.55122160747,38.172615543234]}},{"type":"Feature","properties":{"Associazione":"ODV NOVA MILITIA CHRISTI ORDINE DEI CAVALIERI TEMPLARI GUARDIANI DI PACE; ","Rischio":"Alluvione ","Date":"14\/10\/2023 10:00-18:00; 15\/10\/2023 10:00-18:00; ","Regione":"Sicilia","Comune":"Messina","Indirizzo":"Piazza Duomo, Messina (ME)","Link":"https:\/\/iononrischio.protezionecivile.it\/it\/ https:\/\/www.facebook.com\/profile.php?id=61551104433991 "},"geometry":{"type":"Point","coordinates":[15.553759932518,38.192318225466]}},{"type":"Feature","properties":{"Associazioni":"G.I.V.A. \"Gruppo Internazionale Volontariato Arcobaleno\" Delegazione di Valdina (ME) - ODV; GIVA \"Gruppo Internazionale Volontariato Arcobaleno\" Delegazione di Rometta (ME) - ODV; ","Rischio":"Terremoto  Maremoto ","Date":"14\/10\/2023 10:00-18:00; 15\/10\/2023 10:00-18:00; ","Regione":"Sicilia","Comune":"Milazzo","Indirizzo":"Via G. Medici, Milazzo (ME)","Link":""},"geometry":{"type":"Point","coordinates":[15.242529459375,38.222107376925]}},{"type":"Feature","properties":{"Associazione":"Gruppo Comunale di Protezione Civile di Montalbano Elicona; ","Rischi":"Alluvione Terremoto  Maremoto ","Date":"14\/10\/2023 10:30-19:30; 15\/10\/2023 10:30-19:30; ","Regione":"Sicilia","Comune":"Montalbano Elicona","Indirizzo":"Piazza Maria Santissima della Provvidenza , Montalbano Elicona (ME)","Link":"https:\/\/www.facebook.com\/Io-Non-Rischio-Montalbano-Elicona-108130778620582\/ "},"geometry":{"type":"Point","coordinates":[15.013877459362,38.02355292245]}},{"type":"Feature","properties":{"Associazione":"G.C.V.P.C. Santa Lucia del Mela; ","Rischi":"Alluvione Terremoto  Maremoto ","Date":"14\/10\/2023 17:00-19:30; 15\/10\/2023 09:30-14:00; ","Regione":"Sicilia","Comune":"Santa Lucia del Mela","Indirizzo":"Piazza Milite Ignoto , Santa Lucia del Mela (ME)","Link":"https:\/\/instagram.com\/iononrischio2023_s.luciadmela?igshid=OGQ5ZDc2ODk2ZA== "},"geometry":{"type":"Point","coordinates":[15.280433209289,38.143334165548]}},{"type":"Feature","properties":{"Associazione":"RADIO VALLE ALCANTARA TAORMINA OdV; ","Rischi":"Alluvione Terremoto  Maremoto ","Date":"14\/10\/2023 10:00-20:00; 15\/10\/2023 10:00-20:00; ","Regione":"Sicilia","Comune":"Taormina","Indirizzo":"Piazza IX Aprile, Taormina (ME)","Link":"radio.vallealcantara@gmail.com https:\/\/www.facebook.com\/IoNonRischioTaormina "},"geometry":{"type":"Point","coordinates":[15.285751854866,37.851580705636]}},{"type":"Feature","properties":{"Associazione":"OLMS MAGNA VIS GRUPPO LOCALE BAGHERIA ; ","Rischio":"Alluvione ","Date":"14\/10\/2023 09:00-14:00; 15\/10\/2023 09:00-14:00; ","Regione":"Sicilia","Comune":"Bagheria","Indirizzo":"C.so Umberto I\u00b0, Bagheria (PA)","Link":"https:\/\/www.facebook.com\/profile.php?id=100085690887879 "},"geometry":{"type":"Point","coordinates":[13.509061846895,38.07864894606]}},{"type":"Feature","properties":{"Associazione":"Assistenza e Volontariato Solidale; ","Rischi":"Alluvione Flegrei Terremoto  Maremoto ","Date":"14\/10\/2023 09:30-19:00; 15\/10\/2023 09:30-19:00; ","Regione":"Sicilia","Comune":"Montelepre","Indirizzo":"piazza Ventimiglia, Montelepre (PA)","Link":"https:\/\/www.facebook.com\/profile.php?id=100086495704127&locale=it_IT https:\/\/www.facebook.com\/profile.php?id=100086495704127&locale=it_IT "},"geometry":{"type":"Point","coordinates":[13.171800707274,38.088956078553]}},{"type":"Feature","properties":{"Associazione":"NOPCEA; ","Rischi":"Alluvione Terremoto  Maremoto ","Date":"14\/10\/2023 10:00-20:00; 15\/10\/2023 10:00-20:00; ","Regione":"Sicilia","Comune":"Terrasini","Indirizzo":"PIAZZA BORSELLINO E FALCONE, Terrasini (PA)","Link":"https:\/\/www.protezionecivileterrasini.it\/ https:\/\/www.facebook.com\/people\/Io-Non-Rischio-Terrasini-2022\/100086267352580\/ "},"geometry":{"type":"Point","coordinates":[13.082191249066,38.153197313789]}},{"type":"Feature","properties":{"Associazione":"Fraternita di misericordia Flordia O.D.V.; ","Rischio":"Terremoto  Maremoto ","Date":"14\/10\/2023 10:00-18:00; 15\/10\/2023 10:00-18:00; ","Regione":"Sicilia","Comune":"Buccheri","Indirizzo":"Piazza roma, Buccheri (SR)","Link":"https:\/\/www.facebook.com\/profile.php?id=61551098192939&mibextid=LQQJ4d "},"geometry":{"type":"Point","coordinates":[14.852202440976,37.124999634252]}},{"type":"Feature","properties":{"Associazione":"P.A. CENTRO ASCOLTO E SOLIDARIETA' S. PAOLO AP. ODV; ","Rischi":"Alluvione Terremoto  Maremoto ","Data":"14\/10\/2023 17:00-13:00; ","Regione":"Sicilia","Comune":"Solarino","Indirizzo":"Piazza del Plebiscito, Solarino (SR)","Link":"https:\/\/www.facebook.com\/profile.php?id=61550953450276 "},"geometry":{"type":"Point","coordinates":[15.119796536411,37.100975794437]}},{"type":"Feature","properties":{"Associazioni":"VENERABILE ARCICONFRATERNITA DELLA MISERICORDIA DI LIVORNO; ANPANA Livorno; Croce Rossa Italiana - Comitato di Livorno; GRUPPO VOLONTARIATO E PROTEZIONE CIVILE - A.N.P.S. LIVORNO; ","Rischio":"Alluvione ","Data":"14\/10\/2023 08:00-20:00; ","Regione":"Toscana","Comune":"Livorno","Indirizzo":"piazza cavour, Livorno (LI)","Link":"https:\/\/www.gestionaleinr.it\/ https:\/\/www.facebook.com\/iononrischiolivorno\/ https:\/\/www.instagram.com\/io_non_rischio\/) https:\/\/twitter.com\/iononrischio"},"geometry":{"type":"Point","coordinates":[10.311261349202,43.547819455808]}}]}