{"type":"FeatureCollection","crs":{"type":"name","properties":{"name":"EPSG:4326"}},"features":[{"type":"Feature","id":1,"geometry":{"type":"Point","coordinates":[13.35634947,42.97230064]},"properties":{"OBJECTID":1,"ID_CONT":1,"Regione":"Marche","Comune":"Amandola","Località":"Pian di contro","Nome_Area":"Pian di contro","Numero_container":37,"Inizio_Predisposizione_Area":"14/12/2016","Consegna_Sindaco":"29/01/2017","X":13.35634947,"Y":42.97230064,"FID":1}},{"type":"Feature","id":2,"geometry":{"type":"Point","coordinates":[13.22410146,43.14562558]},"properties":{"OBJECTID":2,"ID_CONT":2,"Regione":"Marche","Comune":"Caldarola","Località":null,"Nome_Area":"Via Aldo Moro","Numero_container":21,"Inizio_Predisposizione_Area":"23/01/2017","Consegna_Sindaco":"22/02/2017","X":13.22410146,"Y":43.14562558,"FID":2}},{"type":"Feature","id":3,"geometry":{"type":"Point","coordinates":[13.06867439,43.12773384]},"properties":{"OBJECTID":3,"ID_CONT":3,"Regione":"Marche","Comune":"Camerino","Località":"Vallicelle","Nome_Area":"Vallicelle A1","Numero_container":76,"Inizio_Predisposizione_Area":"28/11/2016","Consegna_Sindaco":"10/01/2017","X":13.06867439,"Y":43.12773384,"FID":3}},{"type":"Feature","id":4,"geometry":{"type":"Point","coordinates":[13.0681646,43.12734472]},"properties":{"OBJECTID":4,"ID_CONT":4,"Regione":"Marche","Comune":"Camerino","Località":"Vallicelle","Nome_Area":"Vallicelle A2","Numero_container":99,"Inizio_Predisposizione_Area":"28/11/2016","Consegna_Sindaco":"10/02/2017","X":13.0681646,"Y":43.12734472,"FID":4}},{"type":"Feature","id":5,"geometry":{"type":"Point","coordinates":[13.06712528,43.12642389]},"properties":{"OBJECTID":5,"ID_CONT":5,"Regione":"Marche","Comune":"Camerino","Località":"Vallicelle","Nome_Area":"Vallicelle B","Numero_container":98,"Inizio_Predisposizione_Area":"28/11/2016","Consegna_Sindaco":"02/01/2017","X":13.06712528,"Y":43.12642389,"FID":5}},{"type":"Feature","id":6,"geometry":{"type":"Point","coordinates":[13.04915699,42.75512907]},"properties":{"OBJECTID":6,"ID_CONT":6,"Regione":"Umbria","Comune":"Cascia","Località":"Avendita","Nome_Area":"Avendita","Numero_container":44,"Inizio_Predisposizione_Area":"08/12/2016","Consegna_Sindaco":"22/01/2017","X":13.04915699,"Y":42.75512907,"FID":6}},{"type":"Feature","id":7,"geometry":{"type":"Point","coordinates":[13.02176917,42.71670399]},"properties":{"OBJECTID":7,"ID_CONT":7,"Regione":"Umbria","Comune":"Cascia","Località":"Maltignano","Nome_Area":"Campo di mare","Numero_container":37,"Inizio_Predisposizione_Area":"08/12/2016","Consegna_Sindaco":"23/01/2017","X":13.02176917,"Y":42.71670399,"FID":7}},{"type":"Feature","id":8,"geometry":{"type":"Point","coordinates":[13.09731536,42.7961468]},"properties":{"OBJECTID":8,"ID_CONT":8,"Regione":"Umbria","Comune":"Norcia","Località":"Norcia ","Nome_Area":"Norcia Capoluogo 1","Numero_container":39,"Inizio_Predisposizione_Area":"07/12/2016","Consegna_Sindaco":"23/12/2016","X":13.09731536,"Y":42.7961468,"FID":8}},{"type":"Feature","id":9,"geometry":{"type":"Point","coordinates":[13.09711274,42.79593712]},"properties":{"OBJECTID":9,"ID_CONT":9,"Regione":"Umbria","Comune":"Norcia","Località":"Norcia ","Nome_Area":"Norcia Capoluogo 2","Numero_container":77,"Inizio_Predisposizione_Area":"10/12/2016","Consegna_Sindaco":"30/12/2016","X":13.09711274,"Y":42.79593712,"FID":9}},{"type":"Feature","id":10,"geometry":{"type":"Point","coordinates":[13.09694652,42.79572524]},"properties":{"OBJECTID":10,"ID_CONT":10,"Regione":"Umbria","Comune":"Norcia","Località":"Norcia ","Nome_Area":"Norcia Capoluogo 3","Numero_container":null,"Inizio_Predisposizione_Area":"14/12/2016","Consegna_Sindaco":"08/01/2017","X":13.09694652,"Y":42.79572524,"FID":10}},{"type":"Feature","id":11,"geometry":{"type":"Point","coordinates":[13.09682834,42.79642295]},"properties":{"OBJECTID":11,"ID_CONT":11,"Regione":"Umbria","Comune":"Norcia","Località":"Norcia ","Nome_Area":"Norcia Capoluogo 4","Numero_container":41,"Inizio_Predisposizione_Area":"31/12/2016","Consegna_Sindaco":"09/02/2017","X":13.09682834,"Y":42.79642295,"FID":11}},{"type":"Feature","id":12,"geometry":{"type":"Point","coordinates":[13.09664409,42.79621873]},"properties":{"OBJECTID":12,"ID_CONT":12,"Regione":"Umbria","Comune":"Norcia","Località":"Norcia ","Nome_Area":"Norcia Capoluogo 5","Numero_container":37,"Inizio_Predisposizione_Area":"27/01/2017","Consegna_Sindaco":"01/03/2017","X":13.09664409,"Y":42.79621873,"FID":12}},{"type":"Feature","id":13,"geometry":{"type":"Point","coordinates":[13.1009501,42.83926844]},"properties":{"OBJECTID":13,"ID_CONT":13,"Regione":"Umbria","Comune":"Norcia","Località":"Ancarano","Nome_Area":"Ancarano","Numero_container":43,"Inizio_Predisposizione_Area":"09/01/2017","Consegna_Sindaco":"23/02/2017","X":13.1009501,"Y":42.83926844,"FID":13}},{"type":"Feature","id":14,"geometry":{"type":"Point","coordinates":[13.14222003,42.74873356]},"properties":{"OBJECTID":14,"ID_CONT":14,"Regione":"Umbria","Comune":"Norcia","Località":"Frascaro","Nome_Area":"Frascaro","Numero_container":37,"Inizio_Predisposizione_Area":"11/01/2017","Consegna_Sindaco":"03/03/2017","X":13.14222003,"Y":42.74873356,"FID":14}},{"type":"Feature","id":15,"geometry":{"type":"Point","coordinates":[13.10490797,42.75152665]},"properties":{"OBJECTID":15,"ID_CONT":15,"Regione":"Umbria","Comune":"Norcia","Località":"Popoli","Nome_Area":"Popoli","Numero_container":37,"Inizio_Predisposizione_Area":"05/01/2017","Consegna_Sindaco":"30/01/2017","X":13.10490797,"Y":42.75152665,"FID":15}},{"type":"Feature","id":16,"geometry":{"type":"Point","coordinates":[13.14708782,42.75529293]},"properties":{"OBJECTID":16,"ID_CONT":16,"Regione":"Umbria","Comune":"Norcia","Località":"San Pellegrino","Nome_Area":"San Pellegrino","Numero_container":37,"Inizio_Predisposizione_Area":"23/01/2017","Consegna_Sindaco":"01/03/2017","X":13.14708782,"Y":42.75529293,"FID":16}},{"type":"Feature","id":17,"geometry":{"type":"Point","coordinates":[13.12647422,42.72724389]},"properties":{"OBJECTID":17,"ID_CONT":17,"Regione":"Umbria","Comune":"Norcia","Località":"Savelli","Nome_Area":"Savelli","Numero_container":37,"Inizio_Predisposizione_Area":"23/01/2017","Consegna_Sindaco":"03/03/2017","X":13.12647422,"Y":42.72724389,"FID":17}},{"type":"Feature","id":18,"geometry":{"type":"Point","coordinates":[13.46092849,43.2206157]},"properties":{"OBJECTID":18,"ID_CONT":18,"Regione":"Marche","Comune":"Petriolo","Località":"Petriolo","Nome_Area":"Via San Giovanni XXIII","Numero_container":12,"Inizio_Predisposizione_Area":"21/12/2016","Consegna_Sindaco":"27/01/2017","X":13.46092849,"Y":43.2206157,"FID":18}},{"type":"Feature","id":19,"geometry":{"type":"Point","coordinates":[13.05441783,43.05008972]},"properties":{"OBJECTID":19,"ID_CONT":19,"Regione":"Marche","Comune":"Pieve Torina","Località":null,"Nome_Area":"PIP2","Numero_container":74,"Inizio_Predisposizione_Area":"12/12/2016","Consegna_Sindaco":"10/02/2017","X":13.05441783,"Y":43.05008972,"FID":19}},{"type":"Feature","id":20,"geometry":{"type":"Point","coordinates":[13.32893524,43.22009313]},"properties":{"OBJECTID":20,"ID_CONT":23,"Regione":"Marche","Comune":"Tolentino","Località":"Tolentino","Nome_Area":"Tolentino 1","Numero_container":101,"Inizio_Predisposizione_Area":"08/12/2016","Consegna_Sindaco":"16/01/2017","X":13.32893524,"Y":43.22009313,"FID":20}},{"type":"Feature","id":21,"geometry":{"type":"Point","coordinates":[13.32994387,43.22011485]},"properties":{"OBJECTID":21,"ID_CONT":24,"Regione":"Marche","Comune":"Tolentino","Località":"Tolentino","Nome_Area":"Tolentino 2","Numero_container":99,"Inizio_Predisposizione_Area":"08/12/2016","Consegna_Sindaco":"28/01/2017","X":13.32994387,"Y":43.22011485,"FID":21}},{"type":"Feature","id":22,"geometry":{"type":"Point","coordinates":[13.33081595,43.21994727]},"properties":{"OBJECTID":22,"ID_CONT":25,"Regione":"Marche","Comune":"Tolentino","Località":"Tolentino","Nome_Area":"Tolentino 3","Numero_container":99,"Inizio_Predisposizione_Area":"08/12/2016","Consegna_Sindaco":"04/02/2017","X":13.33081595,"Y":43.21994727,"FID":22}},{"type":"Feature","id":23,"geometry":{"type":"Point","coordinates":[13.07901331,42.93299204]},"properties":{"OBJECTID":23,"ID_CONT":26,"Regione":"Marche","Comune":"Visso","Località":"Visso","Nome_Area":"Il Piano","Numero_container":51,"Inizio_Predisposizione_Area":"09/02/2017","Consegna_Sindaco":"15/02/2017","X":13.07901331,"Y":42.93299204,"FID":23}},{"type":"Feature","id":24,"geometry":{"type":"Point","coordinates":[13.06846138,43.12788486]},"properties":{"OBJECTID":24,"ID_CONT":27,"Regione":"Marche","Comune":"Camerino","Località":"Vallicelle","Nome_Area":"Vallicelle A2 completamento","Numero_container":73,"Inizio_Predisposizione_Area":"28/11/2016","Consegna_Sindaco":"10/02/2017","X":13.06846138,"Y":43.12788486,"FID":24}}]}